도서관명,시도명,시군구명,도서관유형,휴관일,운영시작시각,운영종료시각,열람좌석수,자료수(도서),자료수(연속간행물),자료수(비도서),대출가능권수,대출가능일수,소재지도로명주소,운영기관명,도서관전화번호,부지면적,건물면적,홈페이지주소,위도,경도,데이터기준일자
동탄복합문화센터도서관,경기도,화성시,공공도서관,"2,4주 월요일, 국가지정공휴일",9:00,22:00,930,117749,90,2775,5,14,경기도 화성시 노작로 134(반송동),화성시문화재단,031-8015-8200,40397,2600,http://www.hscitylib.or.kr,37.200621,127.0746292,2015-08-17
병점도서관,경기도,화성시,공공도서관,"2,4주 월요일, 국가지정공휴일",9:00,22:00,456,112079,157,3329,5,14,경기도 화성시 병점3로 132-6(병점동),화성시문화재단,031-226-1822,49171,957.01,http://www.hscitylib.or.kr,37.212431,127.0461018,2015-08-17
두빛나래어린이도서관,경기도,화성시,어린이도서관,"2,4주 월요일, 국가지정공휴일",9:00,18:00,62,48741,41,1448,5,14,경기도 화성시 동탄숲속로 69-14(능동),화성시문화재단,031-8003-0748,13593,707,http://www.hscitylib.or.kr,37.209397,127.0566519,2015-08-17
봉담도서관,경기도,화성시,공공도서관,"2,4주 월요일, 국가지정공휴일",9:00,22:00,350,70857,93,1571,5,14,경기도 화성시 봉담읍 샘마을 1길 8-4,화성시문화재단,031-227-7281,2394,1286,http://www.hscitylib.or.kr,37.219457,126.9491345,2015-08-17
삼괴도서관,경기도,화성시,공공도서관,"2,4주 월요일, 국가지정공휴일",9:00,22:00,192,85113,74,3220,5,14,경기도 화성시 우정읍 쌍봉로 109-26,화성시문화재단,031-358-2101,6612,1065,http://www.hscitylib.or.kr,37.089317,126.8142756,2015-08-17
둥지나래어린이도서관,경기도,화성시,어린이도서관,"2,4주 월요일, 국가지정공휴일",9:00,18:00,82,48910,60,1132,5,14,경기도 화성시 향남읍 행정중앙2로 88,화성시문화재단,031-353-8162,2216,899,http://www.hscitylib.or.kr,37.128169,126.9241298,2015-08-17
송산도서관,경기도,화성시,공공도서관,"2,4주 월요일, 국가지정공휴일",9:00,22:00,406,40221,81,1625,5,14,경기도 화성시 송산면 삼일공원로87,화성시문화재단,031-355-5798,8070,1346,http://www.hscitylib.or.kr,37.21697,126.7390067,2015-08-17
남양도서관,경기도,화성시,공공도서관,"2,4주 월요일, 국가지정공휴일",9:00,22:00,190,144324,70,3907,5,14,경기도 화성시 대학길 27(남양읍),화성시문화재단,031-356-5241,3405,674,http://www.hscitylib.or.kr,37.209957,126.8266235,2015-08-17
태안도서관,경기도,화성시,공공도서관,"2,4주 월요일, 국가지정공휴일",9:00,22:00,176,105389,67,4173,5,14,경기도 화성시 용주로 22(안녕동),화성시문화재단,031-223-4764,902,902,http://www.hscitylib.or.kr,37.206135,127.0145273,2015-08-17
정남도서관,경기도,화성시,공공도서관,"2,4주 월요일, 국가지정공휴일",9:00,22:00,139,18903,78,370,5,14,경기도 화성시 정남면 만년로527,화성시문화재단,031-8059-4946,1714,567,http://www.hscitylib.or.kr,37.168373,126.9830113,2015-08-17
샘내작은도서관,경기도,화성시,작은도서관,"매주 일,월요일, 국가지정공휴일",9:00,18:00,26,12203,6,0,5,14,경기도 화성시 매송면 매송고색로 375(천천리),화성시문화재단,031-292-7307,211.76,211.76,http://www.hscitylib.or.kr,37.243898,126.9465402,2015-08-17
기아행복마루작은도서관,경기도,화성시,작은도서관,"매주 일,월요일, 국가지정공휴일",9:00,18:00,80,8557,6,294,5,14,경기도 화성시 우정읍 화산리 617-14 기아 카렌스,화성시문화재단,031-358-2597,162,162,http://www.hscitylib.or.kr,37.064631,126.79559,2015-08-17
장항공공도서관,충청남도,서천군,공공도서관,매주 월요일,09:00,22:00,90,66935 ,68,0,5,14,충청남도 서천군 장항읍 성화로 26-2,전북대학교 산학협력단,041-956-5016,826,1084,http://www.jhlib.kr,36.015272,126.68552,2016-05-20
중앙도서관,경기도,용인시,공공도서관,"2,4주 월요일, 국가지정공휴일",07:00,24:00,556,264510 ,168,3038 ,7,21,경기도 용인시 처인구 명지로 27(역북동),경기도 용인시청,031-324-4610,9944,3608,https://www.yonginlib.go.kr/yongin/main.asp,37.2334807808,127.190401464,2016-03-31
포곡도서관,경기도,용인시,공공도서관,"1,3주 월요일, 국가지정공휴일",07:00,22:00,358,126615 ,82,2644 ,7,21,경기도 용인시 처인구 포곡읍 포곡로278번길 8,경기도 용인시청,031-324-4631,2747,2733,https://www.yonginlib.go.kr/pogok/main.asp,37.2789152841,127.232565489,2016-03-31
모현도서관,경기도,용인시,공공도서관,"2,4주 월요일, 국가지정공휴일",07:00,22:00,250,63378 ,65,747,7,21,경기도 용인시 처인구 모현면 백옥대로 2378,경기도 용인시청,031-324-4351,1627,2728,https://www.yonginlib.go.kr/mohyeon/main.asp,37.3356095931,127.249625907,2016-03-31
보라도서관,경기도,용인시,공공도서관,"2,4주 월요일, 국가지정공휴일",07:00,24:00,540,76566 ,114,678,7,21,경기도 용인시 기흥구 한보라2로 116(보라동),경기도 용인시청,031-324-4331,87722,4316,https://www.yonginlib.go.kr/bora/main.asp,37.2484148585,127.109024579,2016-03-31
디지털도서관,경기도,용인시,공공도서관,"2,4주 월요일, 국가지정공휴일",10:00,19:00,44,9093 ,27,25554 ,7,21,경기도 용인시 처인구 중부대로 1199(삼가동),경기도 용인시청,031-324-4621,81403,382.8,https://www.yonginlib.go.kr/digitallib/main.asp,37.2408670611,127.177968818,2016-03-31
청덕도서관,경기도,용인시,공공도서관,"2,4주 월요일, 국가지정공휴일",09:00,22:00,174,24304,63,393,7,21,경기도 용인시 기흥구 구성1로 44(청덕동),경기도 용인시청,031-284-1763,3366,1981,http://www.yonginlib.go.kr/cheongdeok/main.asp,37.2927981654,127.147428825,2016-03-31
수지도서관,경기도,용인시,공공도서관,"2,4주 월요일, 국가지정공휴일",07:00,24:00,848,194473 ,119,2718 ,7,21,경기도 용인시 수지구 문정로7번길 23(풍덕천동),경기도 용인시청,031-324-8971,15538,5059,https://www.yonginlib.go.kr/suji/main.asp,37.3202760199,127.09468737,2016-03-31
구성도서관,경기도,용인시,공공도서관,"1,3주 월요일, 국가지정공휴일",07:00,24:00,493,116318 ,90,3374 ,7,21,경기도 용인시 기흥구 구성로77번길 17(언남동),경기도 용인시청,031-324-4131,8937,2775,https://www.yonginlib.go.kr/guseong/main.asp,37.2967623035,127.11898327,2016-03-31
죽전도서관,경기도,용인시,공공도서관,"1,3주 월요일, 국가지정공휴일",07:00,24:00,471,124284 ,110,2521 ,7,21,경기도 용인시 수지구 대지로 89(죽전동),경기도 용인시청,031-324-4641,6490,4965,https://www.yonginlib.go.kr/jukjeon/main.asp,37.3304325042,127.118625629,2016-03-31
동백도서관,경기도,용인시,공공도서관,"2,4주 월요일, 국가지정공휴일",07:00,24:00,481,109227 ,105,3118 ,7,21,경기도 용인시 기흥구 동백3로 80(동백동),경기도 용인시청,031-324-4651,41326,5560,https://www.yonginlib.go.kr/dongbaek/main.asp,37.274147384,127.158049652,2016-03-31
기흥도서관,경기도,용인시,공공도서관,"1,3주 월요일, 국가지정공휴일",07:00,24:00,517,118125 ,107,2327 ,7,21,경기도 용인시 기흥구 기흥로116번길 10(신갈동),경기도 용인시청,031-324-4753,13200,6607,https://www.yonginlib.go.kr/giheung/,37.2861786012,127.11359881,2016-03-31
흥덕도서관,경기도,용인시,공공도서관,"2,4주 월요일, 국가지정공휴일",07:00,24:00,540,52908 ,105,343,7,21,경기도 용인시 기흥구 흥덕중앙로 153(영덕동),경기도 용인시청,031-324-4141,3674,4494,https://www.yonginlib.go.kr/heungdeok/,37.2749836149,127.083928183,2016-03-31
상현도서관,경기도,용인시,공공도서관,"1,3주 월요일, 국가지정공휴일",07:00,24:00,580,51978 ,106,456,7,21,경기도 용인시 수지구 법조로 232(상현동),경기도 용인시청,031-324-4121,5435,6813,https://www.yonginlib.go.kr/sanghyeon/,37.2999596329,127.07428762,2016-03-31
구갈희망누리도서관,경기도,용인시,공공도서관,"매주 일요일, 국가지정공휴일",09:00,18:00,64,35088 ,12,0,7,21,경기도 용인시 기흥구 갈곡로12번길 1(구갈동),경기도 용인시청,031-324-6561,357,264,https://www.yonginlib.go.kr/gugal/,37.2727439344,127.129557373,2016-03-31
꿈나무영어도서관,대구광역시,남구,작은도서관,"매주 토,일요일",10:00,15:00,27,3200 ,0,0,1,7,대구광역시 남구 이천로25길48,,053-475-1777,,,,35.852154006945035,128.59526427085555,2015-08-31
꿈이커가는도서관,대구광역시,남구,작은도서관,매주 일요일,10:00,15:00,30,6000 ,1,0,3,7,대구광역시 남구 골안길18,,053-654-4113,,,,35.83753406439022,128.56121725614722,2015-08-31
대명4동꿈틀작은도서관,대구광역시,남구,작은도서관,매주 일요일,9:00,18:00,40,7988 ,34,0,20,10,대구광역시 남구 성명공원길18,,053-621-8667,,,,35.84793266323724,128.57232569675787,2015-08-31
다문화어린이도서관모두,대구광역시,남구,작은도서관,"매주 토,일요일",9:00,16:00,22,17194 ,0,0,15,10,대구광역시 남구 이천로10,,053-471-4250,,,,35.84169729701819,128.59823340162407,2015-08-31
이천행복작은도서관,대구광역시,남구,작은도서관,"매주 토,일요일",9:00,16:00,14,4574 ,0,0,8,7,대구광역시 남구 명덕로68길43,,053-664-3717,,,,35.85287318632543,128.6062148970511,2015-08-31
나눔도서관,대구광역시,남구,작은도서관,매주 일요일,9:00,18:00,15,3000 ,0,0,0,0,대구광역시 남구 중앙대로45길40,,070-8210-9686,,,,35.85421600260996,128.5895407233248,2015-08-31
작은숲영어도서관,대구광역시,남구,작은도서관,"매주 토,일요일",10:00,15:00,20,2000 ,3,0,1,5,대구광역시 남구 봉덕초등길23,,053-290-3334,,,,35.838677183438016,128.59738040377883,2015-08-31
청개구리작은도서관,대구광역시,남구,작은도서관,매주 일요일,9:00,17:00,10,2500 ,0,0,3,7,대구광역시 남구 성당로50길33,,053-650-8438,,,,35.85594571544954,128.57507420906595,2015-08-31
화정도서관,경기도,고양시,공공도서관,"2,4번째 월요일, 국가지정공휴일",7:00,23:00,530,185403,170,5687,7,14,경기도 고양시 덕양구 은빛로 77번길 8,고양시도서관센터,031-8075-9215,4149.3,4580.1,http://www.goyanglib.or.kr,37.637836065990975,126.83710442211019,2015-08-12
행신도서관,경기도,고양시,공공도서관,"1,3번째 월요일, 국가지정공휴일",7:00,23:00,342,152293,130,1680,7,14,경기도 고양시 덕양구 행당로 33번길 25-6,고양시도서관센터,031-8075-9239,3132,2384.3,http://www.goyanglib.or.kr,37.620758975419555,126.82833817678194,2015-08-12
원당도서관,경기도,고양시,공공도서관,"1,3번째 월요일, 국가지정공휴일",7:00,23:00,270,119007,102,3589,7,14,경기도 고양시 덕양구 호국로 790번길 49-9,고양시도서관센터,031-8075-9259,4310,1552.6,http://www.goyanglib.or.kr,37.65629420549736,126.83885919134893,2015-08-12
신원도서관,경기도,고양시,공공도서관,"2,4번째 월요일, 국가지정공휴일",7:00,23:00,170,29612,153,617,7,14,경기도 고양시 덕양구 신원2로 24 제1동,고양시도서관센터,031-8075-9340,14983,3982.89,http://www.goyanglib.or.kr,37.666382852231315,126.88635920873578,2015-08-12
삼송도서관,경기도,고양시,공공도서관,"1,3번째 월요일, 국가지정공휴일",7:00,23:00,110,18330,126,122,7,14,경기도 고양시 덕양구 덕수천1로 73,고양시도서관센터,031-8075-9360,45016,3836.142,http://www.goyanglib.or.kr,37.64886270726925,126.88485389186629,2015-08-12
화정어린이도서관,경기도,고양시,어린이도서관,"1,3번째 월요일, 국가지정공휴일",9:00,18:00,0,99827,35,975,7,14,경기도 고양시 덕양구 화신로 323,고양시도서관센터,031-8075-9299,1002.1,1688.7,http://www.goyanglib.or.kr,37.63283280888214,126.82630289983722,2015-08-12
행신어린이도서관,경기도,고양시,어린이도서관,"2,4번째 월요일, 국가지정공휴일",9:00,18:00,0,100303,28,825,7,14,경기도 고양시 덕양구 소원로181번길 42,고양시도서관센터,031-8075-9278,1050.5,1687.72,http://www.goyanglib.or.kr,37.614790249221585,126.84346572872539,2015-08-12
아람누리도서관,경기도,고양시,공공도서관,"1,3번째 월요일, 국가지정공휴일",9:00,22:00,0,117678,255,2149,7,14,경기도 고양시 일산동구 중앙로 1286 아람누리도서관동,고양시도서관센터,031-8075-9038,54239.4,4457.07,http://www.goyanglib.or.kr,37.66148641166158,126.77445613640077,2015-08-12
마두도서관,경기도,고양시,공공도서관,"2,4번째 월요일, 국가지정공휴일",7:00,23:00,397,182583,164,5605,7,14,경기도 고양시 일산동구 일산로 355,고양시도서관센터,031-8075-9067,36029.3,3756.7,http://www.goyanglib.or.kr,37.66671556838519,126.78205688782967,2015-08-12
백석도서관,경기도,고양시,공공도서관,"1,3번째 월요일, 국가지정공휴일",7:00,23:00,234,148909,156,3631,7,14,경기도 고양시 일산동구 일산로 118,고양시도서관센터,031-8075-9090,4347.7,4030.5,http://www.goyanglib.or.kr,37.64721753428399,126.79362639941422,2015-08-12
풍동도서관,경기도,고양시,공공도서관,"1,3번째 월요일, 국가지정공휴일",9:00,22:00,0,93313,128,1735,7,14,경기도 고양시 일산동구 숲속마을로 108,고양시도서관센터,031-8075-9148,51109.3,1574.13,http://www.goyanglib.or.kr,37.67022045507614,126.79517224734043,2015-08-12
식사도서관,경기도,고양시,공공도서관,"2,4번째 월요일, 국가지정공휴일",7:00,23:00,194,55164,153,1360,7,14,경기도 고양시 일산동구 위시티2로 43-6,고양시도서관센터,031-8075-9190,2400,3775.72,http://www.goyanglib.or.kr,37.67621201175981,126.81597254152055,2015-08-12
대화도서관,경기도,고양시,공공도서관,"1,3번째 월요일, 국가지정공휴일",7:00,23:00,190,129649,150,1974,7,14,경기도 고양시 일산서구 일산로 689,고양시도서관센터,031-8075-9130,3944,3901.82,http://www.goyanglib.or.kr,37.68102184831993,126.7539416736851,2015-08-12
한뫼도서관,경기도,고양시,공공도서관,"2,4번째 월요일, 국가지정공휴일",7:00,23:00,129,133412,167,1655,7,14,경기도 고양시 일산서구 탄중로 284,고양시도서관센터,031-8075-9115,26167,4159.54,http://www.goyanglib.or.kr,37.693557426336135,126.77625932351329,2015-08-12
덕이도서관,경기도,고양시,공공도서관,"1,3번째 월요일, 국가지정공휴일",7:00,23:00,168,51980,150,1164,7,14,경기도 고양시 일산서구 하이파크로 128,고양시도서관센터,031-8075-9320,45821.6,2956.88,http://www.goyanglib.or.kr,37.702949243256036,126.75455412595696,2015-08-12
주엽어린이도서관,경기도,고양시,어린이도서관,"2,4번째 월요일, 국가지정공휴일",9:00,18:00,0,123135,38,1326,7,14,경기도 고양시 일산서구 주엽로 104,고양시도서관센터,031-8075-9168,1500,2049.78,http://www.goyanglib.or.kr,37.668463938692234,126.75650392090039,2015-08-12
햇빛마을작은도서관,경기도,고양시,작은도서관,"1,3,5번째 토요일 매주 일요일 제외한 법정공휴일(일요일,법정공휴일 겹칠경우 휴관)",10:00,18:00,0,19467,0,37,3,7,경기도 고양시 덕양구 충장로 152번길 39 햇빛20단지 관리사무소 2층,햇빛마을20단지 입주자대표회의,031-972-995,,75,http://www.goyanglib.or.kr,37.624831327929456,126.83847402091955,2015-08-12
고양작은도서관,경기도,고양시,작은도서관,"2,4,5번째 토요일 매주 일요일 제외한 법정공휴일(일요일,법정공휴일 겹칠경우 휴관)",10:00,18:00,0,19587,0,55,3,7,경기도 고양시 덕양구 혜음로 19-11 고양동종합복지회관 1층,고양동 주민자치위원회,031-963-4321,,172,http://www.goyanglib.or.kr,37.70251820499019,126.9011952985773,2015-08-12
관산작은도서관,경기도,고양시,작은도서관,"매주 토,일요일 제외한 법정공휴일(일요일,법정공휴일 겹칠경우 휴관)",9:00,18:00,0,23824,0,16,3,7,경기도 고양시 덕양구 통일로 789 관산동주민센터 2층,관산동 주민자치위원회,031-962-1969,,198,http://www.goyanglib.or.kr,37.688013409469754,126.86253572174115,2015-08-12
푸른마을작은도서관,경기도,고양시,작은도서관,"1,3,5번째 토요일 매주 일요일 제외한 법정공휴일(일요일,법정공휴일 겹칠경우 휴관)",10:00,18:00,0,17098,0,25,3,7,경기도 고양시 덕양구 푸른마을로 55 푸른마을6단지 풍림아이원관리사무소 3층,푸른마을6단지 입주자대표회의,031-962-6996,,142,http://www.goyanglib.or.kr,37.71229895930002,126.90531956267112,2015-08-12
화전작은도서관,경기도,고양시,작은도서관,"1,3,5번째 토요일 매주 일요일 제외한 법정공휴일(일요일,법정공휴일 겹칠경우 휴관)",10:00,18:00,0,15968,0,393,3,7,경기도 고양시 덕양구 화랑로 1-1 화전복지회관 2층,화전동 주민자치위원회,02-3159-2266,,100,http://www.goyanglib.or.kr,37.59946902548385,126.87277261609475,2015-08-12
고양윤창작은도서관,경기도,고양시,작은도서관,"1,3,5번째 토요일 매주 일요일 제외한 법정공휴일(일요일,법정공휴일 겹칠경우 휴관)",10:00,18:00,0,8923,0,0,3,7,경기도 고양시 덕양구 동헌로 398-17 윤창아파트 관리동 2층,고양동 윤창아파트 입주자대표회의,070-8843-9633,,110,http://www.goyanglib.or.kr,37.705802950275576,126.89470890591956,2015-08-12
햇빛21작은도서관,경기도,고양시,작은도서관,"1,3,5번째 토요일 매주 일요일 제외한 법정공휴일(일요일,법정공휴일 겹칠경우 휴관)",10:00,18:00,0,7111,0,74,3,7,경기도 고양시 덕양구 화신로 168 햇빛마을21단지 관리동 2층,햇빛마을21단지 입주자대표회의,031-938-9400,,96.5,http://www.goyanglib.or.kr,37.62732203699382,126.84141396657371,2015-08-12
신도작은도서관,경기도,고양시,작은도서관,"1,3,5번째 토요일 매주 일요일 제외한 법정공휴일(일요일,법정공휴일 겹칠경우 휴관)",10:00,18:00,0,7150,0,5,3,7,경기도 고양시 덕양구 삼송로 180 신도동 복지회관 1층,신도동 종합복지회관,02-381-9095,,122.4,http://www.goyanglib.or.kr,37.65314545903405,126.89390845921935,2015-08-12
대덕작은도서관,경기도,고양시,작은도서관,"매주 토,일요일 제외한 법정공휴일(일요일,법정공휴일 겹칠경우 휴관)",9:00,18:00,0,5014,0,50,3,7,경기도 고양시 덕양구 덕은로 34 대덕동 종합복지회관 1층,대덕동 주민자치위원회,070-4260-8805,,118,http://www.goyanglib.or.kr,37.587100745296944,126.87666583536028,2015-08-12
호수공원작은도서관,경기도,고양시,작은도서관,"매주 일,월요일 제외한 법정공휴일(일요일,법정공휴일 겹칠경우 휴관)",10:00,18:00,0,7364,0,1,3,7,경기도 고양시 일산동구 호수로 595 호수공원3주차장 옆동,고양시도서관센터,031-901-2375,,52,http://www.goyanglib.or.kr,37.65384592501277,126.76878140288098,2015-08-12
사리현작은도서관,경기도,고양시,작은도서관,"매주 일,월요일 제외한 법정공휴일(일요일,법정공휴일 겹칠경우 휴관)",10:00,19:00,0,8468,0,0,3,7,경기도 고양시 일산동구 공릉천로 68 동문굿모닝힐 관리동 2층,사리현동 동문굿모닝힐 입주자대표회의,070-8736-5530,,93,http://www.goyanglib.or.kr,37.69918366213712,126.84643619626378,2015-08-12
강촌공원작은도서관,경기도,고양시,작은도서관,"매주 일,월요일 제외한 법정공휴일(일요일,법정공휴일 겹칠경우 휴관)",10:00,19:00,0,3801,0,0,3,7,경기도 고양시 일산동구 강석로 132-1 강촌그린공원내,고양시도서관센터,031-901-6957,,21,http://www.goyanglib.or.kr,37.65333240623597,126.78108064712748,2015-08-12
탄현작은도서관,경기도,고양시,작은도서관,"1,3,5번째 토요일 매주 일요일 제외한 법정공휴일(일요일,법정공휴일 겹칠경우 휴관)",10:00,18:00,0,18395,0,214,3,7,경기도 고양시 일산서구 일현로 140 탄현큰마을 관리사무소 지하1층,탄현큰마을 입주자대표회의,031-915-8875,,168,http://www.goyanglib.or.kr,37.70150613148728,126.76439248051547,2015-08-12
대화마을작은도서관,경기도,고양시,작은도서관,"매주 일,월요일 제외한 법정공휴일(일요일,법정공휴일 겹칠경우 휴관)",10:00,19:00,0,15447,0,85,3,7,경기도 고양시 일산서구 대화1로 61 일산건영휴먼빌5단지 관리동 1층,일신건영휴먼빌 입주자대표회의,031-924-0467,,99,http://www.goyanglib.or.kr,37.67288372217669,126.73539708983522,2015-08-12
노은도서관,대전광역시,유성구,공공도서관,"매월  첫째, 셋째 월요일, 국가지정공휴일",8:00,22:00,212,61538,68,1427,3,14,대전광역시 유성구 노은동로 234번길34(지족동),대전광역시 유성구청,042-601-6610,7523,3355,http://lib.yuseong.go.kr/,36.3814944446,127.320655066,2016-07-25
유성도서관,대전광역시,유성구,공공도서관,"매주 월요일, 국가지정공휴일",8:00,22:00,565,141881,61,8759,3,14,대전광역시 유성구 대덕대로 507-38(가정동),대전광역시 유성구청,042-601-6530,29063,2465.8,http://lib.yuseong.go.kr/,36.3786618252,127.376053385,2016-07-25
진잠도서관,대전광역시,유성구,공공도서관,"매주 월요일, 국가지정공휴일",8:00,22:00,117,60939,68,1237,3,14,대전광역시 유성구 진잠로160번길 19(원내동),대전광역시 유성구청,042-601-6590,29063,2465.8,http://lib.yuseong.go.kr/,36.3031556218,127.319768486,2016-07-25
구즉도서관,대전광역시,유성구,공공도서관,"매주 월요일, 국가지정공휴일",8:00,22:00,271,96457,69,1978,3,14,대전광역시 유성구 와룡로37번길 20(송강동),대전광역시 유성구청,042-601-6510,4967,1496,http://lib.yuseong.go.kr/,36.4294701219,127.380446706,2016-07-25
구암도서관,대전광역시,유성구,공공도서관,"매주 월요일, 국가지정공휴일",8:00,22:00,138,30478,61,0,3,14,대전광역시 유성구 유성대로626번길 57(구암동),대전광역시 유성구청,042-601-6630,,582.1,http://lib.yuseong.go.kr/,36.3492891257,127.330268418,2016-07-25
동화마을작은도서관,대전광역시,유성구,작은도서관,매주 일요일,9:00,17:00,20,19824,0,0,2,7,대전광역시 유성구 관평2로 43(관평동),동화마을 작은도서관 운영위원회,042-935-9738,,288,,36.4228012625,127.38946853,2016-07-25
온천마을작은도서관,대전광역시,유성구,작은도서관,"매주 월요일, 일요일",10:00,17:00,20,11767,0,0,2,7,대전광역시 유성구 문화원로 46(장대동),온천마을 작은도서관 운영위원회,042-823-3918,,196,,36.3598536732,127.34083529,2016-07-25
자운마을작은도서관,대전광역시,유성구,작은도서관,"매주 월요일, 일요일",10:00,17:00,20,7761,0,0,2,7,대전광역시 유성구 자운로 97번길 470(신봉동),자운마을 작은도서관 운영위원회,070-7799-5678,,99.4,,36.4144173224,127.338451162,2016-07-25
희망마을작은도서관,대전광역시,유성구,작은도서관,"매주 월요일, 일요일",10:00,17:00,20,10476,0,0,2,7,대전광역시 유성구 유성대로 680번길 126(구암동),희망마을 작은도서관 운영위원회,070-8861-7279,400,334.4,,36.3523802065,127.337349107,2016-07-25
신성마을작은도서관,대전광역시,유성구,작은도서관,"매주 월요일, 일요일",10:00,17:00,20,14424,0,0,2,7,대전광역시 유성구 신성남로 27(신성동),신성마을 작은도서관 운영위원회,070-4200-6786,18362,181.1,,36.3864498837,127.348057712,2016-07-25
송강마을작은도서관,대전광역시,유성구,작은도서관,"매주 월요일, 일요일",10:00,17:00,20,12713,0,0,2,7,대전광역시 유성구 송강로 42번길 34(송강동),송강마을 작은도서관 운영위원회,070-4404-3030,19703,166.2,,36.4350095845,127.384100511,2016-07-25
영어마을도서관,대전광역시,유성구,작은도서관,"매주 월요일, 일요일",10:00,17:00,20,5075,0,0,2,7,대전광역시 유성구 지족동로 145(지족동),유성구어린이영어마을 작은도서관 운영위원회,042-601-6962,2594,234.1,,36.3868088587,127.307904061,2016-07-25
관평도서관,대전광역시,유성구,공공도서관,"매주 월요일, 국가지정공휴일",8:00,22:00,68,12282 ,53,0,3,14,대전광역시 유성구 테크노4로 131(관평동),충남대학교 산학협력단(민간위탁),042-716-0350,808.8,1755.5,http://www.gplib.or.kr/,36.423183261,127.388391045,2016-07-25
삼국유사군위도서관,경상북도,군위군,공공도서관,"매주 월요일, 법정공휴일, 특별한 사유로 도서관장이 지정한 날",09:00,18:00,510,73205,106,6683,5,14,경상북도 군위군 군위읍 군청로 175,삼국유사군위도서관,054-382-0528,5382,2205,www.gunwilib.or.kr,36.239461,128.572527,2016-06-20
꽃바위작은도서관,울산광역시,동구,작은도서관,월요일,11:00,18:00,0,18890 ,0,497,3,14,울산광역시 동구 문현3길 6(꽃바위문화관 1층),울산광역시동구청,052-209-4337,,216,http//library.donggu.ulsan.kr,35.48705830574148,129.41126358773167,2015-08-31
화정작은도서관,울산광역시,동구,작은도서관,월요일,11:00,18:00,0,15625 ,0,717,3,14,울산광역시 동구 대송로 140(화정주민센터 1층),울산광역시동구청,052-209-3950,,107.8,http//library.donggu.ulsan.kr,35.495867111566,129.42258459498342,2015-08-31
전하작은도서관,울산광역시,동구,작은도서관,월요일,11:00,18:00,0,17909 ,0,721,3,14,울산광역시 동구 진성8길 91(바드래문화관 1층),울산광역시동구청,052-209-3936,,336,http//library.donggu.ulsan.kr,35.50935529423941,129.4293240951313,2015-08-31
남목작은도서관,울산광역시,동구,작은도서관,월요일,11:00,18:00,0,15795 ,0,838,3,14,울산광역시 동구 방어진순환도로 1170(남목1동주민센터 2층),울산광역시동구청,052-209-3947,,178,http//library.donggu.ulsan.kr,35.53928725525364,129.4207550799934,2015-08-31
동부도서관,울산광역시,동구,구민도서관,월요일,9:00,22:00,1002 ,231651 ,305,38582 ,5,14,울산광역시 동구 봉수로 505,울산광역시강북교육청,052-241-2300,"14,076","3,375",https://www.usdl.or.kr/main/main.htm,35.528204155461076,129.42507342391687,2015-08-01
영양공공도서관,경상북도,영양군,공공도서관,매주월요일  국가지정공휴일,9:00,18:00,367,83974 ,271,5091 ,5,14,경상북도 영양군 영양읍 팔수로 538,경상북도 영양교육청,054-683-2829,,,www.yylib.go.kr,36.661005,129.111181,2015-09-01
수비면 작은도서관,경상북도,영양군,작은도서관,매주토요일 매주월요일국가지정공휴일,9:00,18:00,5,2050 ,0,43,3,7,경상북도 영양군 수비면 뒷골길 16-4,경상북도 영양군청,054-683-3600,,,,36.766102,129.203631,2015-09-01
등빛도서관,서울특별시,강서구,공공도서관,매월마지막주 월요일,09:00,22:00,386,44182 ,101,1839,5,14,서울특별시 강서구 강서로62길 48,학교법인세민학원,02-3664-6990,948,"2,281",http://lib.gangseo.seoul.kr,37.5615942,126.8367344,2016-05-31
곰달래도서관,서울특별시,강서구,공공도서관,월요일,09:00,22:00,70,33884 ,93,649,5,14,서울특별시 강서구 강서로5길 50,학교법인세민학원,02-2065-3786,"3,210","1,641",http://lib.gangseo.seoul.kr,37.529061,126.8462943,2016-05-31
강서영어도서관,서울특별시,강서구,공공도서관,월요일,09:00,18:00,177,23805 ,40,858,5,14,서울특별시 강서구 곰달래로57가길 26,학교법인세민학원,02-2061-2270,"3,278",541,http://lib.gangseo.seoul.kr,37.5345776,126.858419,2016-05-31
푸른들청소년도서관,서울특별시,강서구,공공도서관,월요일,09:00,22:00,103,46945 ,51,498,5,14,서울특별시 강서구 강서로45다길 71,학교법인세민학원,02-2691-1630,436,707,http://lib.gangseo.seoul.kr,37.5446502,126.8329898,2016-05-31
길꽃어린이도서관,서울특별시,강서구,공공도서관,월요일,09:00,22:00,200,45576 ,49,585,5,14,서울특별시 강서구 금낭화로24길 5,영신교회,02-2663-4764,669,757,http://lib.gangseo.seoul.kr,37.5786732,126.8116303,2016-05-31
우장산숲속도서관,서울특별시,강서구,공공도서관,월요일,09:00,22:00,166,31523 ,28,279,5,14,서울특별시 강서구 우현로 34,영신교회,02-2696-6689,"1,653",601,http://lib.gangseo.seoul.kr,37.5481777,126.8396835,2016-05-31
꿈꾸는어린이도서관,서울특별시,강서구,공공도서관,월요일,09:00,22:00,271,49197 ,50,697,5,14,서울특별시 강서구 공항대로 615,그리스도대학교,02-3663-4025,"1,100",855,http://lib.gangseo.seoul.kr,37.5472895,126.8711249,2016-05-31
가양도서관,서울특별시,강서구,공공도서관,월요일,09:00,22:00,411,14729 ,80,5,5,14,서울특별시 강서구 양천로 61길 101,그리스도대학교,02-3665-8797,"3,014","1,535",http://lib.gangseo.seoul.kr/small/index.jsp,37.5615572,126.8520553,2016-05-31
아리향기 작은도서관,서울특별시,강서구,작은도서관,일요일,09:00,18:00,0,6992 ,0,0,3,14,"서울특별시 강서구 양천로 67가길 63, 2층(염창동주민센터)",미지회,02-2600-7326,,,http://lib.gangseo.seoul.kr/small/index.jsp,37.5537609,126.8687361,2016-05-31
생각열매 작은도서관,서울특별시,강서구,작은도서관,일요일,09:00,18:00,0,6971 ,0,0,3,14,서울특별시 강서구 공항대로53가길 55,새마을문고,02-2600-7356,,,http://lib.gangseo.seoul.kr/small/index.jsp,37.5557808,126.8583474,2016-05-31
등마루골 작은도서관,서울특별시,강서구,작은도서관,일요일,09:00,18:00,0,6266 ,0,0,3,14,서울특별시 강서구 등촌로143,,02-2600-7381,,,http://lib.gangseo.seoul.kr/small/index.jsp,37.5425682,126.8623409,2016-05-31
큰마음 작은도서관,서울특별시,강서구,작은도서관,일요일,09:00,18:00,0,5723 ,0,0,3,14,서울특별시 강서구 화곡로63길 96,새마을문고,02-2600-7448,,,http://lib.gangseo.seoul.kr/small/index.jsp,37.5588432,126.8457104,2016-05-31
초록향기 작은도서관,서울특별시,강서구,작은도서관,일요일,09:00,18:00,0,6218 ,0,0,3,14,서울특별시 강서구 초록마을로 5길 29,,02-2600-7474,,,http://lib.gangseo.seoul.kr/small/index.jsp,37.5440117,126.8454609,2016-05-31
꿈터 작은도서관,서울특별시,강서구,작은도서관,일요일,09:00,18:00,0,7554 ,0,0,3,14,서울특별시 강서구 곰달래로 79,새마을문고,02-2600-7515,,,http://lib.gangseo.seoul.kr/small/index.jsp,37.5304302,126.8393783,2016-05-31
옹달샘 작은도서관,서울특별시,강서구,작은도서관,일요일,09:00,18:00,0,5554 ,0,0,3,14,서울특별시 강서구 곰달래로37길 13,곰달래봉사단,02-2600-7545,,,http://lib.gangseo.seoul.kr/small/index.jsp,37.5317911,126.8522661,2016-05-31
책마루 작은도서관,서울특별시,강서구,작은도서관,일요일,09:00,18:00,0,7653 ,0,0,3,14,서울특별시 강서구 강서로33가길 17,새마을문고,02-2600-7577,,,http://lib.gangseo.seoul.kr/small/index.jsp,37.5425117,126.8362118,2016-05-31
볏고을 작은도서관,서울특별시,강서구,작은도서관,일요일,09:00,18:00,0,6241 ,0,0,3,14,서울특별시 강서구 곰달래로57가길26,,02-2600-2275,,,http://lib.gangseo.seoul.kr/small/index.jsp,37.5345682,126.8585153,2016-05-31
역마을 작은도서관,서울특별시,강서구,작은도서관,일요일,09:00,18:00,0,4799 ,0,0,3,14,서울특별시 강서구 화곡로312,,02-2600-7660,,,http://lib.gangseo.seoul.kr/small/index.jsp,37.5517608,126.8478771,2016-05-31
배다리 작은도서관,서울특별시,강서구,작은도서관,일요일,09:00,18:00,0,8128 ,0,0,3,14,서울특별시 강서구 곰달래로25길 45,,02-2600-7701,,,http://lib.gangseo.seoul.kr/small/index.jsp,37.5326797,126.8461278,2016-05-31
내발산 작은도서관,서울특별시,강서구,작은도서관,일요일,09:00,18:00,0,8360 ,0,0,3,14,서울특별시 강서구 강서로52길89,새마을문고,02-2600-7756,,,http://lib.gangseo.seoul.kr/small/index.jsp,37.5575099,126.8410165,2016-05-31
도란도란쉼터 작은도서관,서울특별시,강서구,작은도서관,일요일,09:00,18:00,0,8996 ,0,0,3,14,서울특별시 강서구 허준로30,,02-2600-7778,,,http://lib.gangseo.seoul.kr/small/index.jsp,37.5694529,126.842516,2016-05-31
구암마을 작은도서관,서울특별시,강서구,작은도서관,일요일,09:00,18:00,0,7414 ,0,0,3,14,서울특별시 강서구 허준로 93,버팀목,02-2600-7813,,,http://lib.gangseo.seoul.kr/small/index.jsp,37.56737,126.8490987,2016-05-31
도리샘 작은도서관,서울특별시,강서구,작은도서관,일요일,09:00,18:00,0,5661 ,0,0,3,14,서울특별시 강서구 허준로 202,,02-2600-7856,,,http://lib.gangseo.seoul.kr/small/index.jsp,37.56737,126.8490987,2016-05-31
책향기 작은도서관,서울특별시,강서구,작은도서관,일요일,09:00,18:00,0,9062 ,0,0,3,14,서울특별시 강서구 강서로47길 54,새마을문고,02-2600-7874,,,http://lib.gangseo.seoul.kr/small/index.jsp,37.5530936,126.830962,2016-05-31
송정 작은도서관,서울특별시,강서구,작은도서관,일요일,09:00,18:00,0,5807 ,0,0,3,14,서울특별시 강서구 송정로 45,새마을문고,02-2600-7932,,,http://lib.gangseo.seoul.kr/small/index.jsp,37.5588147,126.8079641,2016-05-31
글벗누리 작은도서관,서울특별시,강서구,작은도서관,일요일,09:00,18:00,0,8389 ,0,0,3,14,서울특별시 강서구 방화동로124-1,새마을문고,02-2600-7962,,,http://lib.gangseo.seoul.kr/small/index.jsp,37.5715082,126.8100193,2016-05-31
채움 작은도서관,서울특별시,강서구,작은도서관,일요일,09:00,18:00,0,5832 ,0,0,3,14,서울특별시 강서구 개화동로23길 20,새마을문고,02-2600-5225,,,http://lib.gangseo.seoul.kr/small/index.jsp,37.5667026,126.8045475,2016-05-31
방그리나 작은도서관,서울특별시,강서구,작은도서관,일요일,09:00,18:00,0,3502 ,0,0,3,14,서울특별시 강서구 금낭화로24길 5,새마을문고,02-2600-5267,,,http://lib.gangseo.seoul.kr/small/index.jsp,37.5787012,126.8113521,2016-05-31
수명산 작은도서관,서울특별시,강서구,작은도서관,일요일,09:00,18:00,0,6838 ,0,0,3,14,서울특별시 강서구 수명로 1길 131,새마을문고,02-2666-0037,,,http://lib.gangseo.seoul.kr/small/index.jsp,37.5546464,126.8324473,2016-05-31
옹기종기 작은도서관,서울특별시,강서구,작은도서관,일요일,09:00,18:00,0,5403 ,0,0,3,14,서울특별시 강서구 공항대로61길 50,새마을문고,02-3663-4155,,,http://lib.gangseo.seoul.kr/small/index.jsp,37.5534122,126.8495853,2016-05-31
해뜰 작은도서관,서울특별시,강서구,작은도서관,일요일,09:00,18:00,0,5217 ,0,0,3,14,서울특별시 강서구 방화대로48길 40,,02-2662-6669,,,http://lib.gangseo.seoul.kr/small/index.jsp,37.5749988,126.8188162,2016-05-31
꿈자람책놀이터작은도서관,서울특별시,강서구,작은도서관,월요일,10:00,18:00,30,10544 ,0,0,3,14,서울특별시 강서구 개화동로21길 4,,02-2661-0670,,,http://lib.gangseo.seoul.kr/small/index.jsp,37.5694331,126.8060119,2016-05-31
성동구립도서관,서울특별시,성동구,공공도서관,"매주 월요일, 법정공휴일",,22:00,702,182557,217,10262,5,14,서울특별시 성동구 고산자로 10길9,재단법인 성동문화재단,02-2204-6420,1894,5692,https://www.sdlib.or.kr/SD/,37.5590965,127.0327755,2016-05-31
성동구립금호도서관,서울특별시,성동구,공공도서관,"매주 월요일, 법정공휴일",,22:00,204,79455,71,4134,5,14,서울특별시 성동구 난계로 20,재단법인 성동문화재단,02-2204-6450,863,1517,https://www.sdlib.or.kr/KH/,37.5540969,127.0226933,2016-05-31
성동구립용답도서관,서울특별시,성동구,공공도서관,"매주 월요일, 법정공휴일",,22:00,250,75750,69,3906,5,14,서울특별시 성동구 용답 중앙3길 10,재단법인 성동문화재단,02-2204-6470,629,1482,https://www.sdlib.or.kr/YD/,37.5666792,127.0513143,2016-05-31
성동구립무지개도서관,서울특별시,성동구,공공도서관,"매주 월요일, 법정공휴일",,21:00,130,41382,31,2755,5,14,서울특별시 성동구 고산자로 270,재단법인 성동문화재단,02-2286-6025,469,469,http://www.sdlib.or.kr/rainbow,37.5631553,127.0366266,2016-05-31
성동구립성수도서관,서울특별시,성동구,공공도서관,"매주 월요일, 법정공휴일",,22:00,214,38839,48,2060,5,14,서울특별시 성동구 뚝섬로 1길 43,재단법인 성동문화재단,02-2204-7592,1014,9726,https://www.sdlib.or.kr/SS/,37.5453057,127.0448472,2016-05-31
성동구립청계도서관,서울특별시,성동구,공공도서관,"매주 월요일, 법정공휴일",,20:00,285,34631,64,475,5,14,서울특별시 성동구 마장로 141,재단법인 성동문화재단,02-2204-7580,1920,1189.55,https://www.sdlib.or.kr/cg/,37.5663079,127.0369547,2016-05-31
왕십리도선동희망문고,서울특별시,성동구,공공도서관,법정공휴일,,18:00,35,6044,1,0,3,14,서울특별시 성동구 마장로 141 (상왕십리동),서울특별시 성동구청,02-2286-7214,99.35,99.35,http://wangsimnidoseon.sd.go.kr/,37.5677771,127.0254791,2016-05-31
왕십리제2동작은도서관,서울특별시,성동구,공공도서관,"주말, 법정공휴일",,18:00,7,3121,1,0,3,14,서울특별시 성동구 무학봉길 69 (하왕십리동),서울특별시 성동구청,02-2286-7223,50.58,50.58,https://www.sdlib.or.kr/lib01/,37.5610571,127.0304951,2016-05-31
마장동작은도서관,서울특별시,성동구,공공도서관,"주말, 법정공휴일",,18:00,20,4854,1,0,3,14,서울특별시 성동구 마장로 42길11 (마장동),서울특별시 성동구청,02-2286-7256,46,46,https://www.sdlib.or.kr/lib02/,37.5662931,127.0453541,2016-05-31
사근동어린이놀이터도서관,서울특별시,성동구,공공도서관,"주말, 법정공휴일",,18:00,20,4912,1,0,3,14,서울특별시 성동구 사근동길 45-8 (사근동),서울특별시 성동구청,02-2286-7271,51.8,51.8,https://www.sdlib.or.kr/lib03/,37.5611691,127.0458551,2016-05-31
행당제2동어린이작은도서관,서울특별시,성동구,공공도서관,"주말, 법정공휴일",,18:00,40,9866,1,0,3,14,서울특별시 성동구 행당로 9길 9 (행당동),서울특별시 성동구청,02-2286-7567,100,100,https://www.sdlib.or.kr/lib04/,37.5581961,127.0293611,2016-05-31
응봉동어린이작은도서관,서울특별시,성동구,공공도서관,"주말, 법정공휴일",,17:00,18,5853,1,0,3,14,서울특별시 성동구 독서당로 424 (응봉동),서울특별시 성동구청,02-2286-7335,84,84,https://www.sdlib.or.kr/lib05/,37.5531181,127.0334011,2016-05-31
금호1가동우리동네북카페책단지꿀단지,서울특별시,성동구,공공도서관,"주말, 법정공휴일",,18:00,28,4144,0,0,3,14,서울특별시 성동구 행당로 15 (금호동1가),서울특별시 성동구청,02-2286-7343,71,71,https://www.sdlib.or.kr/lib06/,37.5548341,127.0216371,2016-05-31
"금호2,3가동어린이작은도서관",서울특별시,성동구,공공도서관,"주말, 법정공휴일",,16:00,15,8465,0,0,3,14,서울특별시 성동구 무수막 18길1 (금호동2가),서울특별시 성동구청,02-2286-7374,77,77,https://www.sdlib.or.kr/lib07/,37.5532331,127.0210161,2016-05-31
금호4가동어린이작은도서관,서울특별시,성동구,공공도서관,"주말, 법정공휴일",,18:00,20,6925,1,0,3,14,서울특별시 성동구 독서당로 46길 26 (금호동4가),서울특별시 성동구청,02-2286-7383,134,134,https://www.sdlib.or.kr/lib08/,37.5471711,127.0223111,2016-05-31
옥수동북카페,서울특별시,성동구,공공도서관,"주말, 법정공휴일",,18:00,5,3569,0,0,3,14,서울특별시 성동구 독서당로 205-1 (옥수동),서울특별시 성동구청,02-2286-7418,24,24,https://www.sdlib.or.kr/lib09/,37.5436711,127.0134861,2016-05-31
성수1가제1동작은도서관,서울특별시,성동구,공공도서관,"주말, 법정공휴일",,18:00,20,7421,1,0,3,14,서울특별시 성동구 뚝섬로 3길 18 (성수동1가),서울특별시 성동구청,02-2286-7422,60,60,https://www.sdlib.or.kr/lib10/,37.5420371,127.0496861,2016-05-31
성수1가제2동어린이작은도서관,서울특별시,성동구,공공도서관,"주말, 법정공휴일",,17:00,16,3464,0,0,3,14,서울특별시 성동구 왕십리로 5길 3  (성수동1가),서울특별시 성동구청,02-2286-7443,35,35,https://www.sdlib.or.kr/lib11/,37.5463051,127.0442621,2016-05-31
성수2가제1동어린이작은도서관,서울특별시,성동구,공공도서관,"주말, 법정공휴일",,18:00,30,7469,1,0,3,14,서울특별시 성동구 뚝섬로 385-19 (성수동2가),서울특별시 성동구청,02-2286-7478,59,59,https://www.sdlib.or.kr/lib12/,37.5395011,127.0540511,2016-05-31
성수2가제3동작은도서관,서울특별시,성동구,공공도서관,"주말, 법정공휴일",,17:00,14,10496,1,0,3,14,서울특별시 성동구 광나루로 2길 35 (성수동2가),서울특별시 성동구청,02-2286-7484,99,99,https://www.sdlib.or.kr/lib13/,37.5481921,127.0551891,2016-05-31
송정동늘푸른작은도서관,서울특별시,성동구,공공도서관,"주말, 법정공휴일",,18:00,6,4577,0,0,3,14,서울특별시 성동구 송정 14길 19 (송정동),서울특별시 성동구청,02-2286-7509,29,29,https://www.sdlib.or.kr/lib14/,37.5509851,127.0685221,2016-05-31
용답동어린이작은도서관,서울특별시,성동구,공공도서관,"주말, 법정공휴일",,18:00,20,5672,1,0,3,14,서울특별시 성동구 용답중앙 23길 20 (용답동),서울특별시 성동구청,02-2286-7523,103,103,https://www.sdlib.or.kr/lib15/,37.5640661,127.0555171,2016-05-31
성동자활센터북카페다온,서울특별시,성동구,공공도서관,법정공휴일,,20:30,41,2198,1,0,3,14,서울특별시 성동구 매봉길 21 (옥수동),서울특별시 성동구청,070-4920-8858,89.22,89.22,http://sdjh.or.kr/,37.5452591,127.0157121,2016-05-31
경상북도립봉화공공도서관,경상북도,봉화군,공공도서관,"매월 마지막주 월요일, 국가지정공휴일",09:00,18:00,300,71443,116,4796,5,14,경상북도 봉화군 봉화읍 내성로3길 6,경상북도교육청 봉화공공도서관,054-673-0973,1022.64,349.8,http://www.bhlib.or.kr,36.8884171,128.7399894,2015-09-25
의령도서관,경상남도,의령군,공공도서관,매주월요일,9:00,18:00,267,90055 ,18,4337,90055 ,14,경상남도 의령군 의령읍 의병로 25길 9-8,의령도서관,055-572-0941,"3,418","1,678",http://www.urlib.or.kr,35.31979955307966,128.2667289709427,2015-08-31
청주시립도서관,충청북도,청주시,공공도서관,월요일,09:00,22:00,662,216556,205,7854,4,10,충청북도 청주시 상당구 용암로 55,충청북도 청주시청,043-201-4074,7735,5370,http://library.cheongju.go.kr/lib-cj/index.do,36.6125211,127.4882669,2016-06-30
청주상당도서관,충청북도,청주시,공공도서관,월요일,09:00,22:00,330,87370,113,0,4,10,충청북도 청주시 상당구 대성로 195,충청북도 청주시청,043-201-4103,3807,2681,http://library.cheongju.go.kr/lib-sd/index.do,36.6428323,127.4737264,2016-06-30
청주청원도서관,충청북도,청주시,공공도서관,월요일,09:00,22:00,319,103837,138,892,4,10,충청북도 청주시 청원구 사뜸로61번길 88-14,충청북도 청주시청,043-201-4129,6896,2623,http://library.cheongju.go.kr/lib-cw/index.do,36.6660433,127.4714377,2016-06-30
청주오창호수도서관,충청북도,청주시,공공도서관,월요일,09:00,22:00,544,33178,95,1159,4,10,충청북도 청주시 청원구 오창읍 오창공원로 102,충청북도 청주시청,043-201-4241,9368,8338,http://library.cheongju.go.kr/lib-hs/index.do,36.7250872,127.4257965,2016-06-30
청주오송도서관,충청북도,청주시,공공도서관,월요일,09:00,22:00,298,51475,123,0,4,10,충청북도 청주시 흥덕구 오송읍 오송생명1로 180,충청북도 청주시청,043-201-4167,9881,2752,http://library.cheongju.go.kr/lib-os/index.do,36.6370179,127.4674765,2016-06-30
청주흥덕도서관,충청북도,청주시,공공도서관,월요일,09:00,22:00,338,92503,104,535,4,10,충청북도 청주시 흥덕구 증안로 90번길 34,충청북도 청주시청,043-201-4208,2950,1157,http://library.cheongju.go.kr/lib-hd/index.do,36.6344063,127.4299242,2016-06-30
청주서원도서관,충청북도,청주시,공공도서관,월요일,09:00,22:00,311,76093,93,1109,4,10,충청북도 청주시 서원구 분평로 35,충청북도 청주시청,043-201-4187,2305,2480,http://library.cheongju.go.kr/lib-sw/index.do,36.6087159,127.4864473,2016-06-30
청주신율봉도서관,충청북도,청주시,공공도서관,월요일,09:00,18:00,121,52890,34,41,4,10,충청북도 청주시 흥덕구 신율로 153번길 16,충청북도 청주시청,043-201-4224,1236,991,http://library.cheongju.go.kr/lib-sy/index.do,36.6314402,127.4292726,2016-06-30
청주옥산도서관,충청북도,청주시,공공도서관,월요일,09:00,22:00,134,52704,19,1403,4,10,충청북도 청주시 흥덕구 오산5길 10,충청북도 청주시청,043-201-4175,321,667,http://library.cheongju.go.kr/lib-ok/index.do,36.6648411,127.3667846,2016-06-30
의창도서관,경상남도,창원시,공공도서관,매주금요일,09:00,18:00,730,294735,365,43733,5,14,경상남도 창원시 의창구 용호로 50 (반송동),경상남도 창원시청,055-225-7331,17382,5497,http://www.cwcl.or.kr,35.2334598,128.6790580,2016-05-31
고향의봄도서관,경상남도,창원시,공공도서관,매주월요일,09:00,18:00,502,128398,121,6584,5,14,경상남도 창원시 의창구 평산로 135번길 32 (서상동),경상남도 창원시청,055-225-7371,9122,3753,http://www.cwcl.or.kr,35.2566970,128.6185107,2016-05-31
명곡도서관,경상남도,창원시,공공도서관,매주월요일,09:00,18:00,702,44546,121,1808,5,14,경상남도 창원시 의창구 서곡길 21 (명서동),경상남도 창원시청,055-225-7321,2334,4266,http://www.cwcl.or.kr,35.2531611,128.6485817,2016-05-31
성산도서관,경상남도,창원시,공공도서관,매주금요일,09:00,18:00,569,73817,190,3743,5,14,경상남도 창원시 성산구 외리로 47 (남산동),경상남도 창원시청,055-225-7391,8162,4944,http://www.cwcl.or.kr,35.2020144,128.7071153,2016-05-31
상남도서관,경상남도,창원시,공공도서관,매주월요일,09:00,18:00,554,139165,201,6166,5,14,경상남도 창원시 성산구 원이대로 810 (가음정동),경상남도 창원시청,055-225-7411,11880,3481,http://www.cwcl.or.kr,35.2140850,128.6952250,2016-05-31
마산합포도서관,경상남도,창원시,공공도서관,매주금요일,09:00,18:00,578,166295,218,7132,5,14,경상남도 창원시 마산합포구 월영동16길 22(해운동),경상남도 창원시청,055-225-7431,6840,7324,http://www.cwcl.or.kr,35.1830846,128.5628125,2016-05-31
마산회원도서관,경상남도,창원시,공공도서관,매주월요일,09:00,18:00,404,163617,153,5720,5,14,경상남도 창원시 마산회원구 3ㆍ15대로 558 (회원동),경상남도 창원시청,055-225-7461,5173,2007,http://www.cwcl.or.kr,35.2246680,128.5735500,2016-05-31
내서도서관,경상남도,창원시,공공도서관,매주금요일,09:00,18:00,222,108059,135,3464,5,14,경상남도 창원시 마산회원구 내서읍 삼풍로 79(삼계리),경상남도 창원시청,055-225-7481,1717,1054,http://www.cwcl.or.kr,35.2327430,128.5012380,2016-05-31
중리도서관,경상남도,창원시,공공도서관,매주 일요일,09:00,18:00,200,51058,24,0,5,14,경상남도 창원시 마산회원구 내서읍 호계안길22 (호계리),경상남도 창원시청,055-225-7492,1058,1058,http://www.cwcl.or.kr,35.2560307,128.5202246,2016-05-31
진해도서관,경상남도,창원시,공공도서관,매주월요일,09:00,18:00,431,161933,1164,6669,5,14,경상남도 창원시 진해구 충장로 141 (여좌동),경상남도 창원시청,055-225-7511,1882,4440,http://www.cwcl.or.kr,35.1524030,128.6674430,2016-05-31
동부도서관,경상남도,창원시,공공도서관,매주금요일,09:00,18:00,459,102432,185,5234,5,14,경상남도 창원시 진해구 용재로66 (용원동),경상남도 창원시청,055-225-7531,14793,3622,http://www.cwcl.or.kr,35.0999992,128.8171106,2016-05-31
진해기적의도서관,경상남도,창원시,어린이도서관,"매주월요일,국가지정공휴일",09:00,18:00,200,61800,63,2002,5,7,경상남도 창원시 진해구 석동로70,진해도서관,055-547-0098,2504,842,http://www.jhml.or.kr,35.1560749,128.7064236,2016-05-31
동읍평생교육센터,경상남도,창원시,작은도서관,공휴일,09:30,18:30,32,17351,4,54,3,14,경상남도 창원시 의창구 동읍로 88,동읍주민자치위원회,055-253-7841,6939,376.8,,35.2843644,128.6827407,2016-05-31
용잠마을도서관,경상남도,창원시,작은도서관,공휴일,09:30,18:30,22,12603,4,30,3,14,경상남도 창원시 의창구 동읍 용잠로 41,동읍주민자치위원회,055-253-9161,989,227,,35.2797386,128.6889160,2016-05-31
자여마을도서관,경상남도,창원시,작은도서관,공휴일,09:30,18:30,20,13580,4,66,3,14,경상남도 창원시 의창구 동읍 자여로 64,동읍주민자치위원회,055-291-0124,2008,77,,35.2771048,128.7003552,2016-05-31
반딧불이도서관,경상남도,창원시,작은도서관,"일, 공휴일",10:00,19:00,15,11043,0,0,3,14,경상남도 창원시 의창구 북면 천주로 1085,북면주민자치위원회,055-298-6588,1205.48,198.18,,35.3479708,128.6073276,2016-05-31
대산평생교육센터,경상남도,창원시,작은도서관,"토, 일, 공휴일",09:30,18:00,24,12585,5,81,3,14,경상남도 창원시 의창구 대산면 진산대로355번길 20,대산면주민자치위원회,055-291-6457,643,318.8,,35.3324307,128.7077685,2016-05-31
천주평생교육센터,경상남도,창원시,작은도서관,공휴일,08:30,18:00,30,14088,42,256,2,14,경상남도 창원시 의창구천주로56번길 14(동정동),의창동주민자치위원회,055-299-3408,13821,102,,35.2538433,128.6402609,2016-05-31
소계평생교육센터,경상남도,창원시,작은도서관,공휴일,09:30,19:00,22,14872,11,135,2,14,경상남도 창원시 의창구 소계로84번길 7,의창동주민자치위원회,055-297-3452,555.9,185.76,,35.2572787,128.5999973,2016-05-31
의창평생교육센터,경상남도,창원시,작은도서관,공휴일,09:30,19:00,44,16776,24,67,3,14,경상남도 창원시 의창구 읍성로 25(북동),의창동주민자치위원회,055-296-5604,1088,334.37,,35.2653467,128.6208335,2016-05-31
대원평생교육센터,경상남도,창원시,작은도서관,법정공휴일,09:30,19:00,30,14800,12,0,2,14,경상남도 창원시 의창구 대원로93번길 2(대원동),팔룡동주민자치위원회,055-273-5134,823,281,,35.2350430,128.6510507,2016-05-31
팔룡평생교육센터,경상남도,창원시,작은도서관,법정공휴일,09:30,19:00,25,17145,13,73,3,14,경상남도 창원시 의창구 팔용로 447(팔용동),팔룡동주민자치위원회,055-255-6537,1062,49,,35.2564652,128.6137523,2016-05-31
명곡평생교육센터,경상남도,창원시,작은도서관,공휴일,09:30,19:00,20,13034,8,2,3,14,경상남도 창원시 의창구 태복산로27번길 27-1,명곡동주민자치위원회,055-273-8019,841.64,149.36,,35.2556393,128.6393798,2016-05-31
명서1평생교육센터,경상남도,창원시,작은도서관,"일,공휴일",09:30,19:00,30,14700,8,2,3,14,경상남도 창원시 의창구 명지로122번길 20(명서동),명곡동새마을협의회,055-273-9765,830,411,,35.2456259,128.6491366,2016-05-31
명서2평생교육센터,경상남도,창원시,작은도서관,공휴일,09:30,19:00,30,14055,5,3,3,14,경상남도 창원시 의창구 우곡로101번길 28(명서동),명곡동주민자치위원회,055-273-9766,728,362,,35.2433910,128.6417570,2016-05-31
봉곡평생교육센터,경상남도,창원시,작은도서관,국가공휴일,09:30,19:00,39,16132,12,13,5,14,경상남도 창원시 의창구 창이대로165번길 7(봉곡동),경남정보사회연구소,055-265-6086,831.69,334.35,http://www.kisingo.or.kr/,35.2446844,128.6552350,2016-05-31
봉림평생교육센터,경상남도,창원시,작은도서관,공휴일,09:00,19:00,20,16020,22,0,2,14,경상남도 창원시 의창구 창이대로259번길 1(봉곡동),한가람청소년문화재단,055-265-6087,118.08,298.05,,35.2464496,128.6657648,2016-05-31
사림평생교육센터,경상남도,창원시,작은도서관,국가공휴일,09:30,19:00,30,16297,6,371,3,14,경상남도 창원시 의창구 사림로16번길 37(사림동),경남정보사회연구소,055-261-1034,665.43,664.43,http://www.kisingo.or.kr/,35.2448974,128.6792221,2016-05-31
용지평생교육센터,경상남도,창원시,작은도서관,"일, 공휴일",09:30,19:00,40,17118,8,34,3,14,경상남도 창원시 의창구 용지로239번길 19-4(용호동),용지동주민자치회,055-261-8477,4308.1,285,,35.2360419,128.6845362,2016-05-31
신월평생교육센터,경상남도,창원시,작은도서관,"일, 공휴일",09:30,19:00,24,14573,3,0,5,14,경상남도 창원시 의창구 신월로 48(신월동),창원여성의전화,055-287-0667,752.3,199.2,,35.2276272,128.6926255,2016-05-31
반지평생교육센터,경상남도,창원시,작은도서관,국경일,09:30,19:00,25,18839,8,15,5,14,경상남도 창원시 성산구 반지로15번길 16(반지동),반송동주민자치위원회,055-238-7068,1167,665.6,,35.2410252,128.6587984,2016-05-31
반림마을도서관,경상남도,창원시,작은도서관,국경일,09:00,18:30,27,15681,4,582,5,14,경상남도 창원시 성산구 반송로 105(반림동),반림마을도서위원회,055-261-9223,141.9,141.9,http://cafe.daum.net/banrimlibrary,35.2387819,128.6689378,2016-05-31
내동평생교육센터,경상남도,창원시,작은도서관,"일요일, 공휴일",09:30,19:00,7,15308,4,210,3,14,경상남도 창원시 성산구 창원대로 716(내동),경남여성회,055-287-4114,817.8,285.4,http://www.gnwomen.com/,35.2175739,128.6695360,2016-05-31
중앙평생교육센터,경상남도,창원시,작은도서관,일요일을 제외한 법정공휴일,09:30,19:00,12,14550,4,38,3,14,경상남도 창원시 성산구 원이대로580번길 34(중앙동),(사)지역문화공동체 경남정보사회연구소,055-263-4511,465.5,277.3,http://www.kisingo.or.kr,35.2252302,128.6771984,2016-05-31
중앙동 늘푸른 도서관,경상남도,창원시,작은도서관,일요일 및 공휴일,09:30,18:30,23,12080,3,0,3,14,경상남도 창원시 성산구 외동반림로134번길 15(상남동),중앙동 새마을 문고회,055-281-3342,165,180,http://cafe.daum.net/jungangevergreen,35.2297787,128.6741316,2016-05-31
상남동평생교육센터,경상남도,창원시,작은도서관,국가지정공휴일,09:30,19:00,12,13164,8,0,2,14,경상남도 창원시 성산구 동산로 115(상남동),상남동주민자치위원회,055-264-0517,180,784,http://www.changwon.go.kr/town/sangnam,35.2189019,128.6895637,2016-05-31
사파평생교육센터,경상남도,창원시,작은도서관,국경일,09:30,19:00,35,16087,6,386,2,14,경상남도 창원시 성산구 창이대로706번길 16-23(사파동),(재)창원기독교청년회유지재단,055-266-1158,252,252,,35.2217294,128.6982501,2016-05-31
대방평생교육센터,경상남도,창원시,작은도서관,국경일,09:30,19:00,26,15111,10,144,3,14,"경상남도 창원시 성산구 대정로 142, 3층(대방동)",책사랑,055-283-6558,183.5,183.5,,35.2099366,128.7087556,2016-05-31
사파동성마을도서관,경상남도,창원시,작은도서관,국경일,09:00,18:00,36,14597,7,0,2,14,경상남도 창원시 성산구 비음로 150(사파동),사파동성 아파트 입주자 대표회의,055-263-8216,96,96,,35.2191560,128.7035237,2016-05-31
대동디지털마을도서관,경상남도,창원시,작은도서관,국경일,09:00,18:00,33,12845,8,0,2,14,"경상남도 창원시 성산구 창이대로881번길 8, 205동 1층(대방동)",대동디지털아파트 입주자대표회의,055-603-3087,69.6,69.6,,35.2068657,128.7077877,2016-05-31
가음정평생교육센터,경상남도,창원시,작은도서관,국경일,09:30,19:00,51,20808,2,508,3,14,경상남도 창원시 성산구 원이대로883번길 15-38(가음동),가음정주민자치위원회,055-289-9155,683.3,355.3,http://cafe.daum.net/educationlibrary,35.2085496,128.6972136,2016-05-31
남산평생교육센터,경상남도,창원시,작은도서관,일요일,09:30,19:00,40,19056,2,163,3,14,경상남도 창원시 성산구 가음로92번길 6(가음동),경남여성회,055-282-9605,840,358.2,http://gnwomen.com,35.2051397,128.7026461,2016-05-31
남양평생교육센터,경상남도,창원시,작은도서관,"법정공휴일, 셋째주 일요일",09:30,19:00,36,15178,6,134,3,14,경상남도 창원시 성산구 대정로 84(남양동),희망나라,055-275-0307,1447.9,199,http://cafe.daum.net/mcwlnamyang,35.2088387,128.7009953,2016-05-31
성주평생교육센터,경상남도,창원시,작은도서관,국경일,09:00,18:30,33,20943,10,63,3,14,경상남도 창원시 성산구 공단로 735(성주동),성주동주민자치위원회,055-286-5506,1634,824,http://www.changwon.go.kr/town/sungju/main/main.jsp,35.1897462,128.6950216,2016-05-31
안민마을도서관,경상남도,창원시,작은도서관,"국경일,일요일",09:00,18:30,16,11007,10,42,2,14,경상남도 창원시 성산구 안민안길 34(안민동),성주동주민자치위원회,055-281-5520,366,131,http://www.changwon.go.kr/town/sungju/main/main.jsp,35.1872039,128.6927051,2016-05-31
청솔마을도서관,경상남도,창원시,작은도서관,"국경일,일요일",09:00,18:30,30,14063,6,0,2,14,경상남도 창원시 성산구 안민로 101번길 29(안민동),대동청솔 입주자대표회,055-264-0129,7655,533,,35.1884921,128.6901708,2016-05-31
웅남평생교육센터,경상남도,창원시,작은도서관,공휴일,09:00,18:00,15,20771,9,107,2,14,경상남도 창원시 성산구 신촌로 50(신촌동),웅남동주민자치위원회,055-286-5666,1613.5,541.3,,35.2053567,128.6271836,2016-05-31
반월작은도서관,경상남도,창원시,작은도서관,공휴일,09:00,18:00,43,14000,80,160,5,14,경상남도 창원시 마산합포구 3.15대로 121,반월동주민자치위원회,055-221-8160,204,204.95,,35.1903578,128.5624400,2016-05-31
부림희망작은도서관,경상남도,창원시,작은도서관,"일,공휴일(토)",09:00,18:00,20,5840,80,0,3,14,경상남도 창원시 마산합포구 3.15대로 351 부림지하상가내,도서관연구회,070-8883-0531,84,84,http://cafe.naver.com/burimlibrary,35.2058193,128.5729460,2016-05-31
상곡어울림작은도서관,경상남도,창원시,작은도서관,일요일,10:00,19:00,18,6431,4,85,3,7,경상남도 창원시 마산회원구 내서읍 상곡로 16 내서문화체육센터 2층,새마을운동창원시지회,070-8723-4204,188,188,http://cafe.naver.com/saggok,35.2433272,128.5045572,2016-05-31
합성가고파작은도서관,경상남도,창원시,작은도서관,일요일,09:00,18:00,30,7370,5,186,3,14,경상남도 창원시 마산회원구 합성서3길 21,합성동주민자치위원회,055-253-5583,1450,114,,35.2423520,128.5837301,2016-05-31
봉암동작은도서관,경상남도,창원시,작은도서관,일요일,10:00,19:00,20,6435,2,124,2,14,경상남도 창원시 마산회원구 봉암북2길 31,봉암동주민자치위원회,055-292-5760,,105.38,,35.2212752,128.5972167,2016-05-31
숲속마을도서관,경상남도,창원시,작은도서관,일요일,09:30,18:30,24,12188,2,195,4,7,경상남도 창원시 마산회원구 내서읍 삼계본동1길 86 숲속마을3단지 복지관 2층,숲속책마을,055-252-0882,,135,http://cafe.daum.net/soop-library/saggok,35.2318086,128.4970010,2016-05-31
이미지작은도서관,경상남도,창원시,작은도서관,일요일,09:00,18:00,30,16181,14,103,2,7,경상남도 창원시 마산회원구 내서읍 광려로 29,이미지작은도서관,055-294-9537,,108,http://cafe.naver.com/image294,35.2233185,128.5028317,2016-05-31
책사랑내서마을도서관,경상남도,창원시,작은도서관,일요일,10:00,19:00,40,20215,317,456,3,7,경상남도 창원시 마산회원구 내서읍 호원로 361-3 코오롱1차 관리동3층,책사랑회내서마을도서관,055-297-4724,99.174,99.174,다음/카페/내서마을도서관,35.2654308,128.5254974,2016-05-31
하늘채문화의집,경상남도,창원시,작은도서관,"일,공휴일",09:00,18:00,36,13397,10,198,2,7,경상남도 창원시 마산회원구 내서읍 호원로 359 코오롱2차아파트관리사무소2층,하늘채문화의집 작은도서관,055-292-0484,,218,daum.하늘채문화의집,35.2656860,128.5244561,2016-05-31
내서읍새마을문고,경상남도,창원시,새마을문고,"일,공휴일",10:00,17:30,6,9000,3,0,3,14,경상남도 창원시 마산회원구 내서읍 중리상곡로 65,새마을문고내서읍분회,055-231-3604,,33,http://www.book.1004.or.kr,35.2470895,128.5078341,2016-05-31
회원1동새마을문고,경상남도,창원시,새마을문고,"일,공휴일",13:00,18:00,18,4408,0,27,3,15,경상남도 창원시 마산회원구 회원동11길 7 (동주민센터 3층),새마을문고회원1동분회,055-248-8427,,45,,35.2182421,128.5738978,2016-05-31
석전2동새마을문고,경상남도,창원시,새마을문고,"일,공휴일",10:00,17:00,10,8792,0,0,5,7,경상남도 창원시 마산회원구 석전동4길 52,새마을문고석전2동분회,070-8887-5816,,28.85,,35.2300417,128.5733052,2016-05-31
회성동새마을문고,경상남도,창원시,새마을문고,"일,공휴일",14:00,18:00,32,6189,0,0,2,10,경상남도 창원시 마산회원구 북성로 327,새마을문고회성동분회,055-230-4936,,82.6,,35.2330472,128.5617182,2016-05-31
양덕1동새마을문고,경상남도,창원시,새마을문고,"일,공휴일",12:00,18:00,7,5515,0,0,2,7,경상남도 창원시 마산회원구 팔용로 25 (동주민센터 1층 민원실),새마을문고양덕1동분회,055-230-5471,,315,,35.2323100,128.5862080,2016-05-31
양덕2동새마을문고,경상남도,창원시,새마을문고,"일,공휴일",13:00,18:00,14,9251,1,0,2,7,경상남도 창원시 마산회원구 율림교로 3,새마을문고양덕2동분회,055-294-5058,,33,,35.2291724,128.5839290,2016-05-31
합성2동새마을문고,경상남도,창원시,새마을문고,"일,공휴일",14:00,18:00,30,7100,0,0,2,7,경상남도 창원시 마산회원구 합성남8길 46 (동주민센터 2층),새마을문고합성2동분회,055-299-1908,,311,,35.2390182,128.5867848,2016-05-31
구암1동새마을문고,경상남도,창원시,새마을문고,"일,공휴일",09:00,18:00,16,6097,0,0,2,7,경상남도 창원시 마산회원구 구암서7길 95,새마을문고구암1동분회,055-255-8722,,165,,35.2493921,128.5935416,2016-05-31
구암2동새마을문고,경상남도,창원시,새마을문고,"일,공휴일",12:00,18:00,40,9992,0,20,2,7,경상남도 창원시 마산회원구 구암남16길 12,새마을문고구암2동분회,055-251-2477,,85,,35.2490065,128.5984441,2016-05-31
옹달샘문고,경상남도,창원시,작은도서관,"일,공휴일",10:00,20:00,24,3439,7,125,2,7,경상남도 창원시 진해구 여좌로 67,이병곤,055-545-3551,,52,,35.1575008,128.6620064,2016-05-31
그루터기문고,경상남도,창원시,작은도서관,월요일,10:00,18:00,50,13000,200,290,2,7,경상남도 창원시 진해구 충장로455번길 19,박병판,055-543-0284,,116,,35.1495818,128.7005097,2016-05-31
진해자은3주공아파트마을문고,경상남도,창원시,작은도서관,"토,일요일",15:00,17:00,15,2000,0,0,2,7,경상남도 창원시 진해대로975번길 25,진해자은3주공아파트입주자대표,055-547-0748,,40,,35.1428545,128.7100189,2016-05-31
글벗나래작은도서관,경상남도,창원시,작은도서관,일요일,08:30,17:00,65,13770,8,106,3,7,경상남도 창원시 진해구 진해대로982번길 26,동진여자중학교,055-551-4425,,132,,35.1426139,128.7039894,2016-05-31
대동다숲작은도서관,경상남도,창원시,새마을문고,일요일,11:00,17:00,15,6227,1,0,5,7,경상남도 창원시 진해구 행암로 25,한지연,070-7760-8893,96.37,76.04,,35.1284989,128.7066692,2016-05-31
우성아파트새마을문고,경상남도,창원시,새마을문고,일요일,12:00,18:00,10,6600,2,0,3,7,경상남도 창원시 진해구 충장로 575,홍은경,055-547-0331,773.5,60,,35.1385794,128.7032524,2016-05-31
한림리츠빌작은도서관,경상남도,창원시,새마을문고,일요일,12:00,18:00,10,6474,44,35,2,14,경상남도 창원시 진해구 풍호로 68,김두선,055-980-6413,611.45,38,,35.1390801,128.7089160,2016-05-31
일신숲속마을작은도서관,경상남도,창원시,작은도서관,"토,일요일",13:00,16:00,20,6203,0,50,2,7,경상남도 창원시 진해구 안골로 357,조미숙,055-552-8810,,37.5,,35.1031109,128.8097609,2016-05-31
창원시아이세상장난감도서관,경상남도,창원시,작은도서관,"월,일요일",09:00,18:00,150,10205,23,2033,5,14,경상남도 창원시 진해구 편백로 39,창원시육아종합지원센터,055-541-1912,,523,http://cwtl.or.kr/,35.1495425,128.6605339,2016-05-31
푸른숲영어도서관,경상남도,창원시,작은도서관,일요일,13:30,18:30,25,1300,25,0,3,7,경상남도 창원시 진해구 풍호로 41,정병만,055-545-0022,,75,,35.1401149,128.7057138,2016-05-31
사당솔밭도서관,서울특별시,동작구,공공도서관,"매주 월요일, 법정공휴일",9:00,22:00,280,29553,33,353,5,14,서울특별시 동작구 솔밭로 86,서울특별시 동작구청,02-585-8411,822.16,1724.86,http://lib.dongjak.go.kr/,37.484056,126.967369,2016-01-01
상도국주도서관,서울특별시,동작구,공공도서관,"매주 월요일, 법정공휴일",9:00,22:00,100,38075,11,1092,5,14,서울특별시 동작구 매봉로 37,서울특별시 동작구청,02-813-6750,573.9,525,http://lib.dongjak.go.kr/,37.506711,126.951059,2016-01-01
동작어린이도서관,서울특별시,동작구,공공도서관,"매주 월요일, 법정공휴일",9:00,18:00,130,43327,16,986,5,14,서울특별시 동작구 장승배기로16길 98,서울특별시 동작구청,02-823-6750,1544,444.3,http://lib.dongjak.go.kr/,37.509147,126.943434,2016-01-01
대방어린이도서관,서울특별시,동작구,공공도서관,"매주 월요일, 법정공휴일",9:00,18:00,50,14432,14,150,5,14,서울특별시 동작구 대방동길 55,서울특별시 동작구청,02-813-6740,378,391.3,http://lib.dongjak.go.kr/,37.502978,126.925182,2016-01-01
동작샘터도서관,서울특별시,동작구,작은도서관,"매주 월요일, 법정공휴일",9:00,18:00,50,19563,9,310,5,14,서울특별시 동작구 동작대로29길 63-26,서울특별시 동작구청,02-533-6750,501,241,http://lib.dongjak.go.kr/,37.48832,126.977553,2016-01-01
본도작은도서관,서울특별시,동작구,작은도서관,"매주 월요일, 법정공휴일",9:00,18:00,30,5823,4,99,5,14,서울특별시 동작구 노량진로32길 10,서울특별시 동작구청,02-813-7040,631,119.2,http://lib.dongjak.go.kr/,37.513044,126.95609,2016-01-01
약수작은도서관,서울특별시,동작구,작은도서관,"매주 월요일, 법정공휴일",9:00,18:00,47,16140,12,638,5,14,서울특별시 동작구 양녕로22바길 64,서울특별시 동작구청,02-823-1907,519,122.49,http://lib.dongjak.go.kr/,37.49785,126.94741,2016-01-01
고성군립간성도서관,강원도,고성군,공공도서관,월요일 및 공휴일,09:00,18:00,170,51546 ,19,0,51546 ,14,강원도 고성군 간성읍 쇠롱골길 17,강원도 고성군청,033-680-3560,4403,551,,38.224201,128.280432,2015-08-31
토성공공도서관,강원도,고성군,공공도서관,월요일 및 공휴일,09:00,18:00,210,36220 ,19,1453 ,36220 ,14,강원도 고성군 토성면 토성로 167-6,강원도 고성군청,033-680-3561,1502.8,879.83,,38.152161,128.333024,2015-08-31
정보화도서관,서울특별시,동대문구,공공도서관,매주월요일,9:00,22:00,214,108307,163,7495,4,14,서울특별시 동대문구 회기로 10길 60,서울특별시 동대문시설관리공단,02-960-1959,1161,3094,www.14d.or.kr/ddmeach/index.php?libCho=MA,37.5900770,127.0473390,2015-11-30
휘경어린이도서관,서울특별시,동대문구,어린이도서관,매주월요일,9:00,18:00,86,11454,17,579,4,14,서울특별시 동대문구 망우로 18가길 38,서울특별시 동대문시설관리공단,02-2248-1959,256,346,www.14d.or.kr/ddmeach/index.php?libCho=MJ,37.5889000,127.0605520,2015-11-30
답십리도서관,서울특별시,동대문구,공공도서관,매주금요일,9:00,22:00,171,"32,834",146,"1,302",4,14,서울특별시 동대문구 서울시립대4길 75,서울특별시 동대문시설관리공단,02-982-1956,883,"3,142",www.14d.or.kr/ddmeach/index.php?libCho=mf,37.5734060,127.0504880,2015-11-30
완주군립중앙도서관,전라북도,완주군,공공도서관,일요일을 제외한 법정공휴일,09:00,22:00,340,34506,71,4027,5,20,전라북도 완주군 용진읍 지암로 61,전라북도 완주군청,063-290-2657,54118,2410,http://lib.wanju.go.kr,35.9048759,127.1607891,2015-10-12
완주군립둔산영어도서관,전라북도,완주군,공공도서관,일요일을 제외한 법정공휴일,08:00,22:00,178,33597,60,3820,5,20,전라북도 완주군 봉동읍 둔산2로 62,전라북도 완주군청,063-290-2242,1850,943,http://lib.wanju.go.kr,35.9608947,127.1234908,2015-10-12
완주군립삼례도서관,전라북도,완주군,공공도서관,일요일을 제외한 법정공휴일,08:00,22:00,106,100892,32,2750,5,20,전라북도 완주군 삼례읍 삼봉로 215-12,전라북도 완주군청,063-290-2643,4830,889,http://lib.wanju.go.kr,35.9204895,127.0930668,2015-10-12
완주군립고산도서관,전라북도,완주군,공공도서관,일요일을 제외한 법정공휴일,08:00,22:00,72,56096,31,2078,5,20,전라북도 완주군 고산면 고산로 69-13,전라북도 완주군청,063-290-2620,1653,1154,http://lib.wanju.go.kr,35.9765102,127.1234875,2015-10-12
구이모악작은도서관,전라북도,완주군,작은도서관,"법정공휴일, 일요일",09:00,18:00,30,9014,10,0,3,14,전라북도 완주군 구이면 구이로 1482 구이주민자치센터2층,전라북도 완주군청,063-223-4167,,76,http://lib.wanju.go.kr,35.7318696,127.1207579,2015-10-12
이서배꽃뜰작은도서관,전라북도,완주군,작은도서관,"법정공휴일, 일요일",09:00,18:00,30,10763,10,0,3,14,전라북도 완주군 이서면 이서로 55 이서주민자치센터 2층,전라북도 완주군청,063-224-5122,,145,http://lib.wanju.go.kr,35.8206471,127.0224162,2015-10-12
이서별마루작은도서관,전라북도,완주군,작은도서관,"법정공휴일, 일요일",09:00,18:00,30,5000,10,0,3,14,전라북도 완주군 이서면 이서로 갈산1로 71,전라북도 완주군청,063-222-1919,,,http://lib.wanju.go.kr,35.8382262,127.0531788,2015-10-12
상관기찻길작은도서관,전라북도,완주군,작은도서관,"법정공휴일, 일요일",09:00,18:00,30,10032,10,0,3,14,전라북도 완주군 상관면 신리로49 주민자치센터,전라북도 완주군청,063-231-3200,,192,http://lib.wanju.go.kr,35.7702304,127.2070102,2015-10-12
소양철쭉작은도서관,전라북도,완주군,작은도서관,"법정공휴일, 일요일",09:00,18:00,30,7357,10,0,3,14,전라북도 완주군 소양면 소양로 194 소양주민자치센터 1층,전라북도 완주군청,063-247-8866,,155,http://lib.wanju.go.kr,35.8546744,127.2281843,2015-10-12
화산골작은도서관,전라북도,완주군,작은도서관,"법정공휴일, 일요일",09:00,18:00,30,4924,10,0,3,14,전라북도 완주군 화산면 화산로 830-14 화산면사무소 2층,전라북도 완주군청,063-263-1199,,138,http://lib.wanju.go.kr,36.0356446,127.2035449,2015-10-12
경천애인작은도서관,전라북도,완주군,작은도서관,"법정공휴일, 일요일",09:00,18:00,30,2940,10,0,3,14,전라북도 완주군 경천면 갱금길 29-9,전라북도 완주군청,063-262-2987,,75,http://lib.wanju.go.kr,36.0218744,127.2475364,2015-10-12
행복미소작은도서관,경상남도,산청군,작은도서관,국가지정공휴일,09:00,18:00,15,9408,1,0,5,7,경상남도 산청군 신안면 원지로4번길 36,경상남도 산청군청,055-970-7449,,105,,35.3013858184,127.974461118,2016-08-12
선비마을작은도서관,경상남도,산청군,작은도서관,국가지정공휴일,09:00,18:00,12,5649,0,0,7,7,경상남도 산청군 시천면 남명로234번길 31,경상남도 산청군청,055-974-0190,,69,,35.2761331412,127.844786744,2016-08-12
칠곡군립도서관,경상북도,칠곡군,공공도서관,매주금요일 및 국가지정공휴일,9:00,22:00,400,55742,42,2293,5,14,경상북도 칠곡군 왜관읍 달오1길 6-7,경상북도 칠곡군청,054-979-6700,2449,1358,www.chilgoklib.or.kr,35.9756011,128.3974915,2015-09-01
석적도서관,경상북도,칠곡군,공공도서관,매주월요일 및 국가지정공휴일,9:00,22:00,130,42920,41,807,5,14,경상북도 칠곡군 석적읍 남중리2길 25,경상북도 칠곡군청,054-973-1127,2166,423,www.chilgoklib.or.kr,36.0745255,128.4091609,2015-09-01
북삼도서관,경상북도,칠곡군,공공도서관,매주월요일 및 국가지정공휴일,9:00,22:00,240,46265,45,1153,5,14,경상북도 칠곡군 북삼읍 인평2길 2,경상북도 칠곡군청,054-973-1125,680,582,www.chilgoklib.or.kr,36.0627711,128.3418301,2015-09-01
동명작은도서관,경상북도,칠곡군,작은도서관,매주일/월요일 및 국가지정공휴일,9:00,18:00,60,3869,10,0,5,14,경상북도 칠곡군 동명면 금암중앙길 56,경상북도 칠곡군청,054-974-8219,266.5,266.5,www.chilgoklib.or.kr,35.9699038,128.5200773,2015-09-01
사상도서관,부산광역시,사상구,공공도서관,매주월요일,09:00,22:00,95,110927,55,10539,5,14,부산광역시 사상구 덕상로72번길 9(덕포동),부산광역시 사상구청,051-310-7971,6634,3650.93,http://library.sasang.go.kr,35.1781087,128.9897885,2016-06-09
고맙습니다 보물섬 작은도서관,부산광역시,사상구,작은도서관,매주 일요일,09:00,18:00,81,13761,0,0,3,14,부산광역시 사상구 모라로 110번길 129 모라종합사회복지관 2층,박영규(모라종합사회복지관),051-304-9876,,218.7,,,,2016-06-09
꿈꾸는 작은도서관,부산광역시,사상구,작은도서관,"매주월,수요일",10:00,16:00,12,1200,0,0,0,0,"부산광역시 사상구 새벽로202번길 53, 2층",이순희,051-312-1567,,49.8,,,,2016-06-09
늘소망 작은도서관,부산광역시,사상구,작은도서관,"매주 토,일요일",10:00,18:00,15,3600,0,0,0,0,부산광역시 사상구 냉정로 4번길 17,대한예수교장로회 늘소망교회,051-316-8026,,44.59,,,,2016-06-09
다문화도서관,부산광역시,사상구,작은도서관,"매주 토,일요일",09:00,18:00,28,3500,0,0,3,21,"부산광역시 사상구 사상로 448, 부산은행 3층",(사)이주민과함께/부산외국인근로자지원센터,051-900-0900,,297,,,,2016-06-09
모라1동 작은도서관,부산광역시,사상구,작은도서관,매주 일요일,09:00,18:00,40,10254,0,0,3,14,부산광역시 사상구 사상로 483,모라1동 작은도서관 운영위원회 남정선,051-310-3252,,160.41,,,,2016-06-09
사상 작은도서관,부산광역시,사상구,작은도서관,매주 일요일,09:00,21:00,25,13400,0,0,3,14,부산광역시 사상구 새벽로 168번길 61,사상구청 문화홍보과,051-310-3242,,514.48,,,,2016-06-09
엄궁 쌈지 작은도서관,부산광역시,사상구,작은도서관,매주 일요일,09:00,18:00,16,10997,0,0,3,14,부산광역시 사상구 엄궁북로 15,엄궁작은도서관자치운영위원회,051-310-3221,,84,,,,2016-06-09
열린 작은도서관,부산광역시,사상구,작은도서관,"매주 토,일요일",10:00,18:00,6,1450,0,0,0,0,부산광역시 사상구 사상로 309번길62,서미돌,051-305-7069,,33,,,,2016-06-09
좋은씨앗 작은도서관,부산광역시,사상구,작은도서관,"매주 토,일요일",10:00,16:00,12,1000,0,0,2,14,"부산광역시 사상구 가야대로 397, 2층",안은선,070-8246-2924,,45.07,,,,2016-06-09
주례쌈지작은도서관,부산광역시,사상구,작은도서관,매주 일요일,09:00,18:00,30,13188,0,0,3,14,부산광역시 사상구 주례로 116,주례쌈지 작은도서관 운영위원회 백승렬,051-310-3345,,82.2,,,,2016-06-09
책누리작은도서관,부산광역시,사상구,작은도서관,"매주 토,일요일",10:00,16:00,24,9039,0,0,0,0,"부산광역시 사상구 엄궁로 154, 엄궁대림아파트 관리실 내",책누리 도서관 운영위원회,051-323-9115,,99,,,,2016-06-09
포도송이 작은도서관,부산광역시,사상구,작은도서관,"매주 토,일요일",10:00,16:00,10,1400,0,0,2,14,"부산광역시 사상구 광장로56번길 67, 501,502호",박정은,070-4100-0191,,48,,,,2016-06-09
한울타리 작은도서관,부산광역시,사상구,작은도서관,"매주 토,일요일",10:00,16:00,10,1400,0,0,0,0,부산광역시 사상구 사상로 202번길 48,백형복,051-322-2833,,33,,,,2016-06-09
함께 작은도서관,부산광역시,사상구,작은도서관,"매주 토,일요일",10:00,17:00,12,1200,0,0,0,0,"부산광역시 사상구 운산로 112, 4층",비영리법인 '함께' 유광숙,051-311-0886,,76.2,,,,2016-06-09
함께하는 작은도서관,부산광역시,사상구,작은도서관,"매주월,일요일",10:00,16:00,12,1300,0,0,2,24,"부산광역시 사상구 백양대로 887-26, 함께하는 교회",최상구,051-949-5476,,76.2,,,,2016-06-09
햇살나무작은도서관,부산광역시,사상구,작은도서관,"매주 토,일요일",10:00,17:00,40,9400,0,0,2,14,부산광역시 사상구 모라로110번길 29 3층,부산여성회 김선희,051-312-1391,,132,,,,2016-06-09
화가마을 작은도서관,부산광역시,사상구,작은도서관,"매주 토,일요일",11:00,16:00,8,1100,0,0,0,0,"부산광역시 사상구 낙동대로1210번길 34, 상가동-403호",이경순,051-313-7213,,39.2,,,,2016-06-09
화순열린도서관,전라남도,화순군,공공도서관,"매주 월요일, 1월1일 ,설, 추석",9:00,22:00,300,42184 ,17,807,5,14,전라남도 화순군 화순읍 광덕로 231,전라남도 화순군청,061-373-3955,"5,222",1556,http://www.hslib.kr,35.0655124,126.9917538,2015-08-31
능주면민도서관,전라남도,화순군,작은도서관,"매주 월요일, 법정공휴일",9:00,22:00,36,1209 ,0,0,3,14,전라남도 화순군 능주면 정암길 90,전라남도 화순군청,061-372-2445,839.49,218.24,-,34.9890688,126.9575585,2015-08-18
세빛도서관,전라남도,화순군,작은도서관,없음,7:00,18:00,20,2500 ,1,0,3,14,전라남도 화순군 화순읍 갱정길 16(세빛교회),세빛도서관,061-375-1009,-,109,-,35.0647639,126.9940659,2015-01-01
화순작은도서관,전라남도,화순군,작은도서관,"매주 일요일, 월요일",13:00,18:00,10,3000 ,3,0,3,14,전라남도 화순군 동면 언동1길 82,화순작은도서관,061-371-9122,-,60,-,35.0430302,127.0317411,2015-01-01
다사랑작은도서관,전라남도,화순군,작은도서관,매주 일요일,8:00,18:00,30,3617 ,3,0,3,14,전라남도 화순군 화순읍 진각로 125(2층),다사랑작은도서관,061-371-0191,-,66,-,35.062381,126.9858847,2015-01-01
지혜샘어린이문고,전라남도,화순군,작은도서관,"매주 토요일,일요일",9:00,17:00,10,1500 ,0,0,3,14,전라남도 화순군 화순읍 중앙로 133(시온교회),지혜샘어린이문고,061-375-3004,-,38,-,35.0604876,126.9961312,2015-01-01
늘푸른작은도서관,전라남도,화순군,작은도서관,없음,10:00,17:00,20,3282 ,2,0,3,14,전라남도 화순군 능주면 학포로 2235-3(늘푸른교회),늘푸른작은도서관,061-371-9115,-,66,-,35.013108,126.95205,2015-01-01
화순중앙도서관,전라남도,화순군,작은도서관,매주 월요일,10:00,18:00,28,2554 ,3,0,3,14,전라남도 화순군 화순읍 매화동길 24-1(중앙교회),화순중앙도서관,061-373-8291,-,41,-,35.0578317,126.9773981,2015-01-01
꿈나무도서관,전라남도,화순군,작은도서관,매주 월요일,9:00,17:00,24,2500 ,0,0,3,14,전라남도 화순군 화순읍 칠충로 146(중부교회),꿈나무도서관,061-374-1004,-,66,-,35.0614303,126.984385,2015-01-01
빛나라도서관,전라남도,화순군,작은도서관,없음,9:00,18:00,22,3600 ,34,0,3,14,전라남도 화순군 화순읍 오성로 519-12(신실한교회),빛나라도서관,061-375-1047,-,46.9,-,35.0539587,126.9654276,2015-01-01
한천하누리작은도서관,전라남도,화순군,작은도서관,"매주 월요일, 화요일",15:00,20:00,8,1000 ,0,0,3,14,전라남도 화순군 한천면 한계2길 14,한천하누리작은도서관,061-373-0055,-,94.5,-,34.9759513,126.998225,2015-01-01
해망마을도서관,전라남도,화순군,작은도서관,매주 일요일,14:00,17:00,30,1200 ,0,0,3,14,전라남도 화순군 도암면 아내미길 7,해망마을도서관,061-373-9937,-,116.41,-,34.9643822,126.8889739,2015-01-01
달빛 작은도서관,전라남도,화순군,작은도서관,"매주 일요일, 월요일",13:00,17:00,30,2500 ,0,0,3,14,전라남도 화순군 화순읍 일심3길 10(2층) [월광교회],달빛 작은도서관,061-379-3957,-,78.72,-,35.0560654,126.9934826,2015-01-01
마중물 작은도서관,전라남도,화순군,작은도서관,"매주 토요일,일요일",13:00,19:00,12,1200 ,0,0,3,14,전라남도 화순군 화순읍 정곡로 25-5 [화순명성교회],마중물 작은도서관,061-379-3957,-,36.35,-,35.0504192,126.9603944,2015-01-01
안심 작은도서관,전라남도,화순군,작은도서관,매주 목요일,14:00,17:00,25,2500 ,0,0,3,14,전라남도 화순군 이서면 안심길 26,안심 작은도서관,061-379-3957,-,63,-,35.106199,127.0420849,2015-01-01
잠정햇살마을도서관,전라남도,화순군,작은도서관,매주 월요일,15:00,22:00,39,1150 ,0,0,3,14,전라남도 화순군 능주면 잠정햇살길 20(잠정햇살마을),잠정햇살마을도서관,061-379-3957,-,86.2,-,34.9828193,126.9590842,2015-01-01
능성예절도서관,전라남도,화순군,작은도서관,없음,10:00,17:00,15,1500 ,0,0,3,14,전라남도 화순군 능주면 교촌길 36(능주향교),능성예절도서관,061-379-3957,-,50.8,-,34.9895869,126.9513476,2015-01-01
대구광역시립중앙도서관,대구광역시,중구,공립공공도서관,"매달2,4째 월요일",07:00,22:00,1169 ,579401 ,99,81509 ,10,15,대구광역시 중구 공평로10길 25 (동인동2가),시교육청,053-231-2000,,"10,181",http://www.tglnet.or.kr/,35.8679243,128.6017942,2016-06-20
대구광역시립대봉도서관,대구광역시,중구,공립공공도서관,"매달1,3째 월요일",07:00,22:00,768,208037 ,45,20561 ,5,15,대구광역시 중구 대봉로 210 (대봉동),시교육청,053-231-2877,,"5,091",http://www.dblib.daegu.kr/,35.8574982,128.6024165,2016-06-20
대구광역시립중앙도서관달성분관,대구광역시,중구,공립공공도서관(분관),"매달 2,4째 월요일",07:00,19:00,56,12000 ,6,510,5,15,대구광역시 중구 달성로21길 64 (달성동),시교육청,053-231-2068,,191,없음,35.8760011,128.5795453,2016-06-20
대구광역시청작은도서관,대구광역시,중구,공립작은도서관,"공휴일, 토,일",09:00,19:00,40,42266 ,52,0,5,10,대구광역시 중구 공평로 83 (동문동),시청,053-803-5681,,225,http://lib.daegu.go.kr/,35.8714956,128.6005631,2016-06-20
중구청 교양정보실,대구광역시,중구,공립작은도서관,"토,일",09:00,18:00,8,17544 ,6,0,3,10,대구광역시 중구 국채보상로139길 1 (동인동2가) 5층,중구청,053-661-2146,,102,없음,35.8692686,128.6063004,2016-06-20
중구청소년문화의집 작은도서관,대구광역시,중구,공립작은도서관,월,09:00,21:00,8,2790 ,0,0,0,0,대구광역시 중구 봉산문화길 40 (봉산동),중구청,053-661-2534,,89,없음,35.8618675,128.5979158,2016-06-20
남산4동작은도서관,대구광역시,중구,공립작은도서관,"토,일",09:00,18:00,12,5483 ,4,0,3,10,대구광역시 중구 남산로1길 42 (남산동) 2층,중구청,053-661-3752,,49,없음,35.8581741,128.5804975,2016-06-20
동인 느티나무 도서관,대구광역시,중구,공립작은도서관,일,09:00,19:00,40,4668 ,5,0,2,7,대구광역시 중구 동덕로38길 47 (동인동3가),중구청,053-661-3325,,176,http://zelkovabooks.blog.me/,35.8712358,128.6071962,2016-06-20
대구광역시 중구 영어도서관,대구광역시,중구,공립작은도서관,-,10:00,19:00,20,13718 ,8,3096 ,3,14,대구광역시 중구 달구벌대로440길 27 (대봉동) 2층 영어도서관,중구청,053-661-3961,,353,http://djel.jung.daegu.kr/,35.8615284,128.6043477,2016-06-20
대신동 작은도서관,대구광역시,중구,공립작은도서관,"토,일",09:00,18:00,25,5159 ,6,0,3,14,대구광역시 중구 달구벌대로389길 50 (대신동),중구청,053-661-3673,,106,없음,35.8655561,128.5762489,2016-06-20
성지문고,대구광역시,중구,사립작은도서관,월,09:00,17:00,70,2184 ,0,0,5,15,대구광역시 중구 명덕로65길 10 (대봉동),성지교회,053-422-4856,,132,없음,35.8557711,128.6052731,2016-06-20
남산그린 새마을문고,대구광역시,중구,사립작은도서관,화목토일,15:00,17:00,30,2200 ,1,0,3,7,"대구광역시 중구 달구벌대로 1950(남산동, 남산그린타운아파트) 106동 2층",남산그린아파트,070-8977-8998,,105,없음,35.8622581,128.5773121,2016-06-20
남산휴먼시아 1단지 주민문고,대구광역시,중구,사립작은도서관,-,09:00,18:00,6,2860 ,1,0,999,7,"대구광역시 중구 달구벌대로 1960 (남산동, 남산휴먼시아1단지아파트) 104동 1층",남산휴먼시아1단지,053-257-8600,,35,없음,35.8626811,128.5785521,2016-06-20
남산기독교종합사회복지관 작은도서관,대구광역시,중구,사립작은도서관,일,09:00,20:00,40,3779 ,0,0,3,7,대구광역시 중구 관덕정길 16 (남산동),남산기독사회복지관,053-257-1244,,94,없음,35.8650976,128.5907918,2016-06-20
남산휴먼시아 2단지 마을도서관,대구광역시,중구,사립작은도서관,월화목토일,15:00,17:00,35,5000 ,3,0,999,7,"대구광역시 중구 달구벌대로 1970 (남산동, 남산휴먼시아2단지아파트) 203동 1층",남산휴먼시아2단지,053-427-2425,,99,없음,35.8633681,128.5802521,2016-06-20
남산다락골 작은도서관,대구광역시,중구,사립작은도서관,일,09:00,18:00,34,11051 ,5,0,10,7,대구광역시 중구 남산로4길 112 (남산동)  천주교대구대교구청 여성교육관 교육원 다동 1층,천주교대구대교구청,053-254-6115,,48,없음,35.8606251,128.5869771,2016-06-20
공감 작은도서관,대구광역시,중구,사립작은도서관,-,10:00,19:00,30,2200 ,4,25,0,0,"대구광역시 중구 중앙대로 79길32, 2층",공감게스트하우스,070-8915-8991,,40,없음,35.8692151,128.5919201,2016-06-20
고맙습니다 이삭 작은도서관,대구광역시,중구,사립작은도서관,토일,10:00,19:00,24,3600 ,12,0,3,150,대구광역시 중구 국채보상로 541 5층,대구YMCA,053-422-2100,,181,없음,35.8706161,128.5898651,2016-06-20
남산 책나무 작은도서관,대구광역시,중구,사립작은도서관,일,10:00,18:00,32,5500 ,1,0,0,0,대구광역시 중구 남산로 61 (남산동) 2층,남산책나무,053-257-4005,,188,없음,35.8620606,128.5821275,2016-06-20
이음 작은도서관,대구광역시,중구,사립작은도서관,목금일,12:30,18:30,30,1000 ,2,0,0,0,대구광역시 중구 중앙대로 61길 63,대구문화예술창작소,053-219-4033,,42,없음,35.8609544,128.5886647,2016-06-20
동네작은도서관,대구광역시,중구,사립작은도서관,월,10:00,18:00,20,2623 ,0,22,0,0,대구광역시 중구 국채보상로150길 25 (동인동4가),주사랑교회,070-8624-9135,,49.5,없음,35.8671601,128.611518,2016-06-20
경상북도립봉화공공도서관,경상북도,봉화군,공공도서관,"매월 마지막주 월요일, 국가지정공휴일",09:00,18:00,300,69912,118,4938,5,14,경상북도 봉화군 봉화읍 내성로3길 6,경상북도교육청,054-673-0973,1022.64,349.8,http://www.bhlib.or.kr,36.8884171,128.7399894,2016-05-27
수성구립범어도서관,대구광역시,수성구,공공도서관,"매주월요일, 국가지정공휴일",09:00,22:00,698,102117,172,102117,5,15,대구광역시 수성구 달구벌대로 2461,(재)수성문화재단,053-668-1600,5965,6904,http://library.suseong.kr/beomeo,35.8597480,128.6307250,2015-09-23
수성구립고산어린이도서관,대구광역시,수성구,공공도서관,"매주 일요일, 국가지정공휴일",13:00,21:00,75,34205,14,13,5,15,대구광역시 수성구 고산로 101 시지이마트 지하1층,(재)수성문화재단,056-666-2190,317,317,http://library.suseong.kr/beomeo/library/03.htm,35.8402730,128.7040750,2015-09-23
수성구립사월역작은도서관,대구광역시,수성구,작은도서관,"매주 일요일, 국가지정공휴일",12:00,20:00,21,7217,6,0,5,15,대구광역시 수성구 달구벌대로 지하3290,(재)수성문화재단,053-792-8582,60,60,http://library.suseong.kr/beomeo/library/05.htm,35.8375870,128.7160500,2015-09-23
용학도서관,대구광역시,수성구,공공도서관,"매주월요일, 국가지정공휴일",09:00,22:00,409,102353,532,3362,5,15,대구광역시 수성구 지범로 41길 36(범물동),(재)수성문화재단,053-668-1700,1720.4,4515.9,http://library.suseong.kr/yonghak/,35.8212530,128.6461280,2015-09-23
책숲길도서관,대구광역시,수성구,공공도서관,"매주 일요일, 국가지정공휴일",09:00,18:00,125,34522,317,0,5,15,대구광역시 수성구 수성로 213(중동),(재)수성문화재단,053-666-4383,,477,http://library.suseong.kr/yonghak/library/02.htm,35.8449830,128.6119520,2015-09-23
물망이도서관,대구광역시,수성구,공공도서관,"매주 일요일, 국가지정공휴일",09:00,18:00,51,24451,88,0,5,15,대구광역시 수성구 명덕로 443-2(수성동3가),(재)수성문화재단,053-666-4390,,307,http://library.suseong.kr/yonghak/library/01.htm,35.8547440,128.6190270,2015-09-23
파동도서관,대구광역시,수성구,공공도서관,"매주 일요일, 국가지정공휴일",09:00,18:00,90,16028,123,0,5,15,대구광역시 수성구 파동로 3길 62,(재)수성문화재단,053-668-1801,,411.85,http://library.suseong.kr/yonghak/library/04.htm,35.8104380,128.6182660,2015-09-23
장성군립중앙도서관,전라남도,장성군,공공도서관,매주 금요일,9:00,19:00,100,100333 ,50,9516 ,5,14,전라남도 장성군 장성읍 문화로 110,전라남도 장성군청,061-393-7900,"57,918","2,925",www.jsah.net,35.3033096,126.7674064,2015-08-31
장성군립삼계도서관,전라남도,장성군,공공도서관,매주 금요일,9:00,19:00,60,14678 ,22,0,5,14,전라남도 장성군 삼계면 영장로 1585,전라남도 장성군청,061-395-4100,"2,395",627.36,www.jsah.net,35.2577251,126.6609865,2015-08-31
장성군립북이도서관,전라남도,장성군,공공도서관,매주 금요일,9:00,19:00,40,14208 ,25,0,5,14,전라남도 장성군 북이면 백양로 13,전라남도 장성군청,061-395-4200,"3,255",609.3,www.jsah.net,35.4297421,126.8104897,2015-08-31
연수청학도서관,인천광역시,연수구,공공도서관,"매주 월요일, 국가지정공휴일",7:00,22:00,400,67086 ,99,1492 ,5,15,인천광역시 연수구 솔샘로 146,인천광역시 연수구청,032-749-8270,1298.2,"2,645.36",http://www.yspubliclib.go.kr,37.4255593,126.6609502,2015-08-31
연수어린이도서관,인천광역시,연수구,어린이도서관,"매주 월요일, 국가지정공휴일",10:00,18:00,30,64645 ,21,8842 ,5,15,인천광역시 연수구 먼우금로 164,인천광역시 연수구청,032-749-8200,1334.6,"1,775",http://www.yspubliclib.go.kr,37.4122578,126.6747411,2015-08-31
송도국제어린이도서관,인천광역시,연수구,어린이도서관,"매주 월요일, 국가지정공휴일",10:00,18:00,200,61400 ,27,8475 ,5,15,인천광역시 연수구 컨벤시아대로 43,인천광역시 연수구청,032-749-8220,908,"1,702.61",http://www.yspubliclib.go.kr,37.3970268,126.6548818,2015-08-31
옥련1동작은도서관,인천광역시,연수구,작은도서관,"매주 토요일, 매주 일요일, 국가지정공휴일",10:00,18:00,34,14507 ,0,0,5,15,인천광역시 연수구 비류대로 186번길 14 옥련1동 주민센터 2층,인천광역시 연수구청,032-749-6026,310,1647.44,http://www.yspubliclib.go.kr,37.4273352,126.6550785,2015-08-31
옥련2동어린이작은도서관,인천광역시,연수구,작은도서관,"매주 일요일, 국가지정공휴일",10:00,18:00,100,36602 ,10,0,5,15,인천광역시 연수구 옥련로 10 옥련2동 주민센터 5층,인천광역시 연수구청,032-749-6084,322,1625,http://www.yspubliclib.go.kr,37.4232577,126.6479221,2015-08-31
연수2동작은도서관,인천광역시,연수구,작은도서관,"매주 일요일, 국가지정공휴일",10:00,18:00,60,11623 ,0,0,5,15,인천광역시 연수구 원인재로 158 3층,인천광역시 연수구청,032-749-6244,344,1568.96,http://www.yspubliclib.go.kr,37.4116297,126.6818255,2015-08-31
송도2동작은도서관,인천광역시,연수구,작은도서관,"매주 일요일, 국가지정공휴일",10:00,18:00,60,11566 ,0,0,5,15,인천광역시 연수구 신송로 248 송도2동 주민센터 4층,인천광역시 연수구청,032-749-6595,175,1299.5,http://www.yspubliclib.go.kr,37.3954874,126.6521599,2015-08-31
삼매봉도서관,제주특별자치도,서귀포시,공공도서관,매주목요일,08:00,24:00,211,"88,447",25,"3,106",5,15,제주특별자치도 서귀포시 남성중로153번길 15,서귀포시,064-733-1524,"13,189","1,624",http://lib.jeju.go.kr,33.2446563,126.5517975,2015-08-20
중앙도서관,제주특별자치도,서귀포시,공공도서관,매주화요일,08:00,24:00,606,"87,600",28,"6,995",5,15,제주특별자치도 서귀포시 김정문화로 32,서귀포시,064-739-1516,"20,882","3,394",http://lib.jeju.go.kr,33.2511814,126.508187,2015-08-20
동부도서관,제주특별자치도,서귀포시,공공도서관,매주수요일,08:00,24:00,183,"54,778",28,"5,440",5,15,제주특별자치도 서귀포시 일주동로 8232,서귀포시,064-767-1524,"9,985","1,372",http://lib.jeju.go.kr,33.2622673,126.6088075,2015-08-20
서부도서관,제주특별자치도,서귀포시,공공도서관,매주월요일,08:00,24:00,202,"44,511",24,"1,544",5,15,제주특별자치도 서귀포시 중문관광로 346,서귀포시,064-760-3714,"7,927","1,300",http://lib.jeju.go.kr,33.251047,126.4317627,2015-08-20
기적의도서관,제주특별자치도,서귀포시,공공도서관,매주월요일,08:00,24:00,280,"56,197",27,"2,402",5,14,제주특별자치도 서귀포시 일주동로 8593,서귀포시,064-732-3251,"16,190",911,http://lib.jeju.go.kr,33.2541844,126.5704175,2015-08-20
안덕산방도서관,제주특별자치도,서귀포시,공공도서관,매주금요일,08:00,22:00,150,"63,378",28,"3,996",5,15,제주특별자치도 서귀포시 안덕면 화순서서로 44,서귀포시,064-794-2489,"3,306","1,838",http://lib.jeju.go.kr,33.2550122,126.3307261,2015-08-20
표선도서관,제주특별자치도,서귀포시,공공도서관,매주금요일,08:00,22:00,382,"65,136",25,"2,647",5,15,제주특별자치도 서귀포시 표선면 표선백사로110번길 17-10,서귀포시,064-787-5488,"5,840","1,926",http://lib.jeju.go.kr,33.3237558,126.8385045,2015-08-20
성산일출도서관,제주특별자치도,서귀포시,공공도서관,매주금요일,08:00,22:00,380,"72,183",27,"9,529",5,15,제주특별자치도 서귀포시 성산읍 고성오조로 133,서귀포시,064-783-4227,"7,007","2,115",http://lib.jeju.go.kr,33.4556878,126.9122073,2015-08-20
보목꿈터,제주특별자치도,서귀포시,작은도서관,매주 일/월,13:00,18:00,28,"13,560",0,0,3,14,제주특별자치도 서귀포시 칠십리로 483-1 (보목동),보목마을회,064-732-3506,114,114,,33.2417595,126.6024779,2015-08-20
상창바람소리,제주특별자치도,서귀포시,작은도서관,매주 목/일,17:00,21:00,20,"4,930",0,0,3,14,제주특별자치도 서귀포시 안덕면 한창로 102,상창리마을회,064-794-6045,200,200,,33.2723236,126.3661767,2015-08-20
삼달리,제주특별자치도,서귀포시,작은도서관,매주 수,13:00,18:00,20,"3,367",0,0,3,14,제주특별자치도 서귀포시 성산읍 삼달로 208,삼달1리마을회,064-781-8060,111,111,,33.3800166,126.8613421,2015-08-20
동광해바른,제주특별자치도,서귀포시,작은도서관,매주 금/토,17:00,21:00,40,"4,932",0,0,3,14,제주특별자치도 서귀포시 안덕면 동광로 126,동광리마을회,064-794-2287,189,189,,33.3042134,126.3517393,2015-08-20
세화2리갯머리,제주특별자치도,서귀포시,작은도서관,매주 수/일,13:00,18:00,50,"3,040",0,0,3,14,제주특별자치도 서귀포시 표선면 일주동로 6276,세화2리마을회,064-787-3420,156,156,,33.3070253,126.8014195,2015-08-20
신례1리예촌,제주특별자치도,서귀포시,작은도서관,매주 수/일,15:00,20:00,29,"3,795",0,0,3,14,제주특별자치도 서귀포시 남원읍 신례중앙로 37,신례1리마을회,064-767-5200,205,205,,33.2880911,126.6271158,2015-08-20
중앙꿈쟁이,제주특별자치도,서귀포시,작은도서관,매주 월,13:00,20:00,50,"6,494",0,0,3,14,제주특별자치도 서귀포시 동문동로 27 (서귀동),중앙동,070-4548-1409,205,205,,33.2507152,126.5651902,2015-08-20
온평열운이,제주특별자치도,서귀포시,작은도서관,매주 수/금,13:30,18:00,22,"3,140",0,0,3,14,제주특별자치도 서귀포시 성산읍 온평애향로 23번길 6,온평마을회,064-782-8057,165,165,,33.4081349,126.9002373,2015-08-20
토산1리웃토산,제주특별자치도,서귀포시,작은도서관,매주 금,15:00,20:00,20,"3,100",0,0,3,14,제주특별자치도 서귀포시 표선면 중산간동로 5570번길 2,토산1리마을회,064-787-4019,85,85,,33.3264196,126.7658003,2015-08-20
학나래도서관,인천광역시,남구,공공도서관,"매주 월요일,법정공휴일",10:00,22:00,96,43020,27,1118,5,15,인천광역시 남구 한나루로 444,인천광역시 남구청,032-880-4303,1053,627,http://hnrl.namgu.incheon.kr,37.4464884,126.6674754,2015-07-31
독정골도서관,인천광역시,남구,어린이도서관,"매주 토,일요일,법정공휴일",10:00,18:00,38,13497,6,0,5,15,인천광역시 남구 인주대로 171번길 1,인천광역시 남구청,032-872-0042,480,199.8,http://hnrl.namgu.incheon.kr,37.456027,126.6563009,2015-07-31
복사꽃도서관,인천광역시,남구,작은도서관,"매주 월요일,법정공휴일",10:00,18:00,25,12181,3,0,5,15,인천광역시 남구 경인로 295,인천광역시 남구청,032-865-8632,524,354,http://hnrl.namgu.incheon.kr,37.4608479,126.6738077,2015-07-31
석바위도서관,인천광역시,남구,작은도서관,"매주 월요일,법정공휴일",10:00,18:00,35,14820,8,0,5,15,인천광역시 남구 경원대로 876번길 59,인천광역시 남구청,032-422-0651,680,337.9,http://hnrl.namgu.incheon.kr,37.4595008,126.6717246,2015-07-31
관교도서관,인천광역시,남구,어린이도서관,"매주 월요일,법정공휴일",10:00,22:00,45,18069,7,0,5,15,인천광역시 남구 인하로 452,인천광역시 남구청,032-421-8630,992,392.3,http://hnrl.namgu.incheon.kr,37.4441559,126.696806,2015-07-31
숭의도서관,인천광역시,남구,어린이도서관,"매주 월요일,법정공휴일",10:00,18:00,50,13620,2,0,5,15,인천광역시 남구 참외전로 304,인천광역시 남구청,032-882-0182,1197,444.1,http://hnrl.namgu.incheon.kr,37.4655938,126.6498764,2015-07-31
쑥골도서관,인천광역시,남구,어린이도서관,"매주 월요일,법정공휴일",10:00,18:00,50,14626,3,0,5,15,인천광역시 남구 염전로 202번길 49,인천광역시 남구청,032-872-8630,1144,404.2,http://hnrl.namgu.incheon.kr,37.4755613,126.6613078,2015-07-31
한우리도서관,인천광역시,남구,작은도서관,"매주 월요일,법정공휴일",10:00,18:00,24,11746,8,0,5,15,인천광역시 남구 주안서로53번길 22,인천광역시 남구청,032-872-0814,876,356.2,http://hnrl.namgu.incheon.kr,37.4637642,126.6765574,2015-07-31
소금꽃도서관,인천광역시,남구,작은도서관,"매주 월요일,법정공휴일",10:00,18:00,25,16782,5,0,5,15,인천광역시 남구 주안5동 석정로 462,인천광역시 남구청,032-872-0731,1989,349.5,http://hnrl.namgu.incheon.kr,37.4633617,126.7021382,2015-07-31
장사래도서관,인천광역시,남구,어린이도서관,"매주 월요일,법정공휴일",10:00,18:00,50,13121,5,0,5,15,인천광역시 남구 경인로 24번길 20,인천광역시 남구청,032-886-5055,1158,292.2,http://hnrl.namgu.incheon.kr,37.4627916,126.6473658,2015-07-31
이랑도서관,인천광역시,남구,작은도서관,"매주 월요일,법정공휴일",10:00,18:00,65,13908,7,0,5,15,인천광역시 남구 미추홀대로 578번길 7,인천광역시 남구청,032-427-2283,1347,533.2,http://hnrl.namgu.incheon.kr,37.4491446,126.6803368,2015-07-31
제물포도서관,인천광역시,남구,작은도서관,"매주 월요일,법정공휴일",10:00,18:00,12,10133,6,0,5,15,인천광역시 남구 수봉로 22-1,인천광역시 남구청,032-887-8836,810,479,http://hnrl.namgu.incheon.kr,37.4640297,126.6561249,2015-07-31
경상북도립예천공공도서관,경상북도,예천군,공공도서관,"매주 월요일, 법정 공휴일",9:00,22:00,460,72009 ,19,5577,5,14,경상북도 예천군 예천읍 중앙로 40-5,경상북도립예천공공도서관,054-652-6076,429.48,1315.44,http://www.yecheon-lib.go.kr/,36.6552246,128.4543051,2015-08-28
양산시립도서관,경상남도,양산시,공공도서관,법정공휴일(일요일 제외),9:00,22:00,1253,100360 ,104,14847 ,5,21,경상남도 양산시 물금읍 청룡로 11,경상남도 양산시청,055-392-5900,16735,6560,http://lib.yangsan.go.kr,35.3252566,128.9965099,2016-04-01
웅상도서관,경상남도,양산시,공공도서관,법정공휴일(일요일 제외),9:00,22:00,1200,155874 ,84,19115 ,5,21,경상남도 양산시 웅상대로 1009-2 (주진동),경상남도 양산시청,055-392-5950,15199,5582,http://lib.yangsan.go.kr,35.3894429,129.1552696,2016-04-01
양산영어도서관,경상남도,양산시,공공도서관,"월요일, 법정공휴일",9:00,18:00,318,15364,15,2774 ,5,21,경상남도 양산시 대평들1길 9-10(소주동),경상남도 양산시청,055-392-5940,1527,995,http://lib.yangsan.go.kr,35.4144861,129.1640184,2016-04-01
상북어린이도서관,경상남도,양산시,공공도서관,"일요일,월요일, 법정공휴일",9:00,18:00,80,8637,6,133,5,21,경상남도 양산시 상북면 반회서7길 14-16,경상남도 양산시청,055-392-5936,609,265,,35.4159451,129.0595816,2016-04-01
아름꿈 도서관,서울특별시,종로구,공공도서관,"일, 법정공휴일",11:00,20:00,60,14009,6,667,3,10,서울특별시 종로구 종로58가길 19,서울특별시 종로구청,02-2237-6644,,,http://lib.jongno.go.kr/,37.572697580366345,127.01711575791433,2015-09-01
청운문학도서관,서울특별시,종로구,공공도서관,"월, 1월1일, 설, 추석",10:00,19:00,60,10356,6,0,3,10,서울특별시 종로구 자하문로 36길 40,서울특별시 종로구청,070-4680-4032,,,http://lib.jongno.go.kr/,37.59037860428018,126.9659189049631,2015-09-01
작은도서관 삼봉서랑,서울특별시,종로구,작은도서관,"토,일, 법정공휴일",9:00,19:00,50,11224,5,0,3,10,서울특별시 종로구 삼봉로 43 종로구청 본관1층,서울특별시 종로구청,02-2148-3932,,,http://lib.jongno.go.kr/,37.57319787317971,126.97881344792525,2015-09-01
통인 어린이 작은도서관,서울특별시,종로구,작은도서관,"둘째,넷째 월요일, 법정공휴일",10:00,19:00,50,11304,0,0,3,10,서울특별시 종로구 자하문로 13길 20,서울특별시 종로구청,02-739-8444,,,http://lib.jongno.go.kr/,37.58042567432007,126.97052887196114,2015-09-01
통인 어린이 작은도서관,서울특별시,종로구,작은도서관,"둘째,넷째 월요일, 법정공휴일",10:00,17:00,50,11304,0,0,3,10,서울특별시 종로구 자하문로 13길 20,서울특별시 종로구청,02-739-8444,,,http://lib.jongno.go.kr/,37.58042567432007,126.97052887196114,2015-09-01
삼청공원 숲속도서관,서울특별시,종로구,작은도서관,"둘째,넷째 화요일, 법정공휴일",10:00,18:00,40,6156,0,0,3,10,서울특별시 종로구 북촌로 134-3,서울특별시 종로구청,02-734-3900,,,http://lib.jongno.go.kr/,37.588937276842024,126.98421203884448,2015-09-01
청운효자동 북카페,서울특별시,종로구,작은도서관,"토,일, 법정공휴일",10:00,18:00,37,5111,0,0,3,10,서울특별시 종로구 자하문로 92(청운효자동 주민센터 2층),서울특별시 종로구청,02-2148-5014,,,http://lib.jongno.go.kr/,37.58409093927406,126.97062252912833,2015-09-01
꿈꾸는 평창동 작은도서관,서울특별시,종로구,작은도서관,"토,일, 법정공휴일",10:00,17:00,13,4597,0,0,3,10,서울특별시 종로구 평창문화로65(평창동 주민센터 2층),서울특별시 종로구청,02-2148-5141,,,http://lib.jongno.go.kr/,37.60637367867771,126.96836687860072,2015-09-01
무악다솜방,서울특별시,종로구,작은도서관,"토,일, 법정공휴일",9:00,18:00,30,4055,0,0,3,10,서울특별시 종로구 통일로 14길 36(무악동 주민센터 2층),서울특별시 종로구청,02-2148-5164,,,http://lib.jongno.go.kr/,37.57599985913768,126.95815963393514,2015-09-01
홍파랑 북카페,서울특별시,종로구,작은도서관,"일, 법정공휴일",10:00,17:00,10,4757,0,0,3,10,서울특별시 종로구 송월길 154(교남동 주민센터 2층),서울특별시 종로구청,02-2148-5197,,,http://lib.jongno.go.kr/,37.57191423295802,126.96196085343524,2015-09-01
홍파랑 북카페,서울특별시,종로구,작은도서관,"일, 법정공휴일",10:00,12:00,10,4757,0,0,3,10,서울특별시 종로구 송월길 154(교남동 주민센터 2층),서울특별시 종로구청,02-2148-5197,,,http://lib.jongno.go.kr/,37.57191423295802,126.96196085343524,2015-09-01
지혜만들기 작은도서관,서울특별시,종로구,작은도서관,"토,일, 법정공휴일",10:00,17:00,16,3812,0,0,3,10,서울특별시 종로구 종로35가길 19(종로56가동 주민센터 3층),서울특별시 종로구청,02-2148-5285,,,http://lib.jongno.go.kr/,37.572060809430404,127.00503054106045,2015-09-01
이화마을 작은도서관,서울특별시,종로구,작은도서관,"일, 법정공휴일",10:00,17:00,30,6248,0,0,3,10,서울특별시 종로구 이화장길 33(이화동 주민센터 2층),서울특별시 종로구청,02-2148-5309,,,http://lib.jongno.go.kr/,37.57698026778117,127.00434710811255,2015-09-01
이화마을 작은도서관,서울특별시,종로구,작은도서관,"일, 법정공휴일",13:00,17:00,30,6248,0,0,3,10,서울특별시 종로구 이화장길 33(이화동 주민센터 2층),서울특별시 종로구청,02-2148-5309,,,http://lib.jongno.go.kr/,37.57698026778117,127.00434710811255,2015-09-01
혜화마을 북카페,서울특별시,종로구,작은도서관,"일, 법정공휴일",10:00,17:00,16,4293,0,0,3,10,서울특별시 종로구 혜화로 12(혜화동 자치회관 4층),서울특별시 종로구청,02-2148-5339,,,http://lib.jongno.go.kr/,37.5868552362675,127.00056610446971,2015-09-01
혜화마을 북카페,서울특별시,종로구,작은도서관,"일, 법정공휴일",11:00,16:00,16,4293,0,0,3,10,서울특별시 종로구 혜화로 12(혜화동 자치회관 4층),서울특별시 종로구청,02-2148-5339,,,http://lib.jongno.go.kr/,37.5868552362675,127.00056610446971,2015-09-01
창신1동하람 작은도서관,서울특별시,종로구,작은도서관,"토,일, 법정공휴일",10:00,17:00,30,3887,0,0,3,10,서울특별시 종로구 지봉로 8-6(창신1동 주민센터 2층),서울특별시 종로구청,02-2148-5408,,,http://lib.jongno.go.kr/,37.57071910479988,127.01634104135418,2015-09-01
창이 작은도서관,서울특별시,종로구,작은도서관,"토,일, 법정공휴일",10:00,19:00,22,4161,0,0,3,10,서울특별시 종로구 창신길 62(창신2동 주민센터 2층),서울특별시 종로구청,02-2148-5439,,,http://lib.jongno.go.kr/,37.57444985451868,127.01087193061595,2015-09-01
숭인마루 작은도서관,서울특별시,종로구,작은도서관,"토,일, 법정공휴일",9:00,18:00,18,3420,0,0,3,10,서울특별시 종로구 지봉로 86(숭인1동 주민센터 2층),서울특별시 종로구청,02-2148-5496,,,http://lib.jongno.go.kr/,37.577822644121575,127.01562712401446,2015-09-01
도담도담 한옥도서관,서울특별시,종로구,작은도서관,"첫째, 셋째 화요일, 법정공휴일",10:00,19:00,30,3777,0,0,3,10,서울특별시 종로구 숭인동길 43,서울특별시 종로구청,02-928-1133,,,http://lib.jongno.go.kr/,37.57692787191651,127.0218396745935,2015-09-01
도담도담 한옥도서관,서울특별시,종로구,작은도서관,"첫째, 셋째 화요일, 법정공휴일",10:00,18:00,30,3777,0,0,3,10,서울특별시 종로구 숭인동길 43,서울특별시 종로구청,02-928-1133,,,http://lib.jongno.go.kr/,37.57692787191651,127.0218396745935,2015-09-01
아름동 도서관,세종특별자치시,아름동,공공도서관,"매주 일요일, 국가지정공휴일",9:00,18:00,74,8212,50,70,3,14일,"세종특별시 보듬3로 114(아름동),주민자치센터 4층",세종특별자치시 아름동,044-301-6361,851.6,851.6,-,36.5924922,127.2921328,2015-08-28
도담동도서관,세종특별자치시,도담동,공공도서관,"매주 일요일, 국가지정공휴일",9:00,21:00,150,10828,37,129,3,14일,"세종특별자치시 보람로 77(도담동),주민자치센터 2층",세종특별자치시 도담동,044-301-6263,805,805,,34.1234567,123.1234567,2015-08-31
한솔동 도서관,세종특별자치시,한솔동,공공도서관,"매주 일요일, 국가지정공휴일",9:00,21:00,85,12363,13,150,3,14일,"세종특별시 노을3로 85(한솔동),주민자치센터 3층",세종특별자치시 한솔동,044-301-6161,366.02,366.02,-,35.907757,127.766922,2015-08-28
안동시립도서관,경상북도,안동시,공공도서관,매주화요일/국가지정공휴일,8:00,21:00,346,100211 ,13,727,3,7,경상북도 안동시 태사길 78,안동시립도서관,054-858-5041,"1,385","1,898",http://lib.andong.go.kr,36.5661722,128.7353063,2015-07-31
경상북도립안동도서관,경상북도,안동시,공공도서관,"매월 1,3주 월요일/국가지정공휴일",8:00,22:00,1276 ,221068 ,96,13004 ,5,14,경상북도 안동시 안기천로 48,경상북도교육청,054-840-8414,"4,885","4,302",http://www.andonglib.go.kr,36.5618958,128.7172531,2015-07-31
경상북도립안동도서관용상분관,경상북도,안동시,공공도서관,매주 월요일/국가지정공휴일,8:00,22:00,418,80164 ,40,5341 ,5,14,경상북도 안동시 경동로 884-8,경상북도교육청,054-840-5491,"2,332","1,410",http://www.andonglib.go.kr/yongsang_new/,36.5576434,128.7516476,2015-07-31
경상북도립안동도서관풍산분관,경상북도,안동시,공공도서관,매주 월요일/국가지정공휴일,8:00,22:00,350,84935 ,46,3869 ,5,14,경상북도 안동시 풍산읍 하리들길22,경상북도교육청,054-858-7603,"2,800","1,333",http://pungsan.andonglib.go.kr/,36.57674,128.5751272,2015-07-31
은행선화동마을문고,대전광역시,중구,공공도서관,"토,일,공휴일",9:00,18:00,20,2964,0,0,3,15,대전광역시 중구 보문로 337번길 33(선화동),대전광역시 은행선화동주민센터,042-254-3001,,40,http://www.djjunggu.go.kr/html/dong/dong_0101.html,36.3323810,127.4166640,2015-08-31
목동 마을문고,대전광역시,중구,공공도서관,"토,일,공휴일",9:00,18:00,56,3754,0,0,3,15,대전광역시 중구 목중로39번길39(목동),대전광역시 목동주민센터,042-253-4401,,150.54,http://www.djjunggu.go.kr/html/dong/dong_0102.html,36.3366220,127.4092860,2015-08-31
중촌동마을문고,대전광역시,중구,공공도서관,"토,일,공휴일",10:00,17:00,8,3327,0,0,0,15,"대전광역시 중구 목중로 70번길 15(중촌동),중촌다목적복지회관2층",대전광역시 중촌동주민센터,042-253-4415,,37,http://www.djjunggu.go.kr/html/dong/dong_0103.html,36.3392910,127.4078700,2015-08-31
대흥마을문고,대전광역시,중구,공공도서관,"토,일,공휴일",9:00,18:00,9,1916,0,0,3,15,대전광역시 중구 대흥로 109 ?(대흥동)?종합문화복지관 2층,대전광역시 대흥동주민센터,042-253-4403,,42,http://www.djjunggu.go.kr/html/dong/dong_0104.html,36.3233630,127.4242790,2015-08-31
문창동마을문고,대전광역시,중구,공공도서관,"토,일,공휴일",9:00,18:00,20,4124,0,0,3,15,대전광역시 중구 보문로20번길 38  (문창동),대전광역시 문창동주민센터,042-272-4406,,35.5,http://www.djjunggu.go.kr/html/dong/dong_0105.html,36.3161830,127.4379270,2015-08-31
돌다리작은도서관(석교동마을문고),대전광역시,중구,공공도서관,"토,일,공휴일",9:00,18:00,15,6140,0,0,3,15,대전광역시 중구 대종로 228  (석교동),대전광역시 석교동주민센터,042-271-4408,,69.3,http://www.djjunggu.go.kr/html/dong/dong_0106.html,36.3096810,127.4424140,2015-08-31
부사동 마을문고,대전광역시,중구,공공도서관,"토,일,공휴일",9:00,18:00,20,5388,0,0,3,15,대전광역시 중구 보문로68번길 20  (부사동),대전광역시 부사동주민센터,042-253-4407,,43.2,http://www.djjunggu.go.kr/html/dong/dong_0108.html,36.3142320,127.4336590,2015-08-31
용두동 마을문고,대전광역시,중구,공공도서관,"토,일,공휴일",9:00,18:00,22,4115,0,0,3,15,대전광역시 중구 동서대로1322번길 111  (용두동),대전광역시 용두동주민센터,042-253-4412,,72.7,http://www.djjunggu.go.kr/html/dong/dong_0109.html,36.3251580,127.4104000,2015-08-31
열두광주리어린이도서관,대전광역시,중구,작은도서관,"토,일,공휴일",10:00,19:00,15,2000,0,0,3,15,대전광역시 중구 수침로55번길 25  (태평동),열두광주리지역아동센터,042-222-6242,,105,,36.3249230,127.3992930,2015-08-31
오류동마을문고,대전광역시,중구,공공도서관,"토,일,공휴일",9:00,18:00,20,3249,0,0,3,15,대전광역시 중구 오류로 56  (오류동),대전광역시 오류동주민센터,042-522-2303,,38.6,http://www.djjunggu.go.kr/html/dong/dong_0110.html,36.3254420,127.4038540,2015-08-31
태평1동 마을문고,대전광역시,중구,공공도서관,"토,일,공휴일",9:00,17:00,20,6557,0,0,3,15,대전광역시 중구 동서대로 1234  (태평동),대전광역시 태평1동주민센터,042-522-3002,,150.42,http://www.djjunggu.go.kr/html/dong/dong_0111.html,36.3260770,127.3970750,2015-08-31
버드내작은도서관(유천2동마을문고),대전광역시,중구,공공도서관,"토,일,공휴일",13:00,18:00,14,5464,0,0,3,15,대전광역시 중구 유천로48번길 34  (유천동),대전광역시 유천2동주민센터,042-584-4114,,177.64,http://www.djjunggu.go.kr/html/dong/dong_0114.html,36.3172260,127.3999670,2015-08-31
문화1동마을문고,대전광역시,중구,공공도서관,"토,일,공휴일",9:00,18:00,15,4311,0,0,3,15,대전광역시 중구 문화로 195  (문화동),대전광역시 문화1동주민센터,042-582-0301,,86.495,http://www.djjunggu.go.kr/html/dong/dong_0115.html,36.3153170,127.4064630,2015-08-31
맑은샘도서관(문화2동마을문고),대전광역시,중구,공공도서관,"토,일,공휴일",9:00,18:00,24,6193,0,0,3,15,대전광역시 중구 당디로6번길 90  (문화동),대전광역시 문화2동주민센터,042-528-3290,,47.7,http://www.djjunggu.go.kr/html/dong/dong_0116.html,36.3077300,127.3992550,2015-08-31
산성마을문고,대전광역시,중구,공공도서관,"토,일,공휴일",9:00,18:00,30,5495,0,0,3,15,대전광역시 중구 대둔산로 403  (산성동),대전광역시 산성동주민센터,042-581-2302,,60.02,http://www.djjunggu.go.kr/html/dong/dong_0117.html,36.3053910,127.3861450,2015-08-31
알짬마을도서관,대전광역시,중구,작은도서관,"토,일,공휴일",11:00,18:00,15,7062,3,0,3,15,"대전광역시 중구 대종로224번길 8,2층  (석교동)",마을단위/회원,042-283-7778,,137,,36.3095770,127.4430810,2015-08-31
늘푸른도서관,대전광역시,중구,작은도서관,"일,공휴일",9:00,18:00,21,10000,0,0,3,15,대전광역시 중구 학고개로 14(옥계동),서대전성결교회,042-274-8291,,123,,36.2972790,127.4540890,2015-08-31
대전문화 별찌작은도서관,대전광역시,중구,작은도서관,"토,일,공휴일",11:00,18:00,18,2127,0,0,3,15,대전광역시 중구 목중로35번길 29  (목동),개인,042-253-3226,,71.59,,36.3358080,127.4092030,2015-08-31
대전점자도서관,대전광역시,중구,작은도서관,"토,일,공휴일",9:00,18:00,30,4075,0,0,3,15,대전광역시 중구 서문로10(문화동),시각장애인,042-252-0055,,200.87,,36.3098160,127.4096230,2015-08-31
새마음 작은도서관,대전광역시,중구,작은도서관,"토,일,공휴일",10:00,18:00,28,1483,0,0,0,15,대전광역시 중구 산성로16번길 24  (산성동),새마음지역아동센터,042-581-4302,,36,,36.3058170,127.3920250,2015-08-31
성락작은도서관,대전광역시,중구,작은도서관,"토,일,공휴일",15:00,17:00,50,2360,29,0,3,15,대전광역시 중구 남달미로 85  (목달동),성락종합사회복지관,042-285-7188,,101.3,,36.2668810,127.4082840,2015-08-31
문창비젼문고,대전광역시,중구,작은도서관,없음,15:00,19:00,20,1000,0,0,0,15,대전광역시 중구 보문로 184  (대흥동),문창지역아동센터,042-226-6009,,55,,36.3193200,127.4249870,2015-08-31
성민도서관,대전광역시,중구,작은도서관,없음,10:00,15:00,60,2000,0,0,3,15,대전광역시 중구 선화로 53번길 43(선화동),성민지역아동센터,042-226-9004,,217,,36.3291210,127.4139400,2015-08-31
주안문고,대전광역시,중구,작은도서관,"토,일,공휴일",10:00,20:00,12,1560,0,0,0,15,대전광역시 중구 수침로 55번길 36(태평동),주안지역아동센터,042-383-3330,,38,,36.3253360,127.3988990,2015-08-31
예인회 책방,대전광역시,중구,작은도서관,"토,일,공휴일",11:00,18:00,7,2000,0,0,0,15,대전광역시 중구 송리로20번길 2  (문화동),좋은교회,070-7717-4468,,50,,36.3073810,127.4018200,2015-08-31
유천어린이도서관,대전광역시,중구,작은도서관,"토,일,공휴일",10:00,20:00,30,1200,6,0,3,15,"대전광역시 중구 대종로 713(중촌동, 금호아파트관리사무소)",유천지역아동센터,042-255-2650,,75.63,,36.341278,127.407438,2015-08-31
한마음문고,대전광역시,중구,작은도서관,월요일,10:00,18:00,22,1288,1,0,3,15,대전광역시 중구 계룡로918번길 44-6  (문화동),하마음교회,042-242-313,,60.56,,36.32,127.412519,2015-08-31
꾸러기 도서관,대전광역시,중구,작은도서관,"일,공휴일",11:00,20:00,10,1250,0,0,3,15,대전광역시 중구 선화로119번길 16-3  (선화동),어깨동무지역아동센터,042-221-7098,,36,,36.331036,127.420073,2015-08-31
센트럴파크2단지문고,대전광역시,중구,작은도서관,"토,일,공휴일",13:30,17:30,30,4032,0,0,3,15,대전광역시 중구 목중로 70번길 15(중촌동) 중촌다목적복지회관1층,센터럴파크2단지아파트,042-226-3534,,61,,36.339291,127.40787,2015-08-31
어린이 미래도서관,대전광역시,중구,작은도서관,"월,화,수,목,금,토요일",9:00,19:00,50,4300,0,0,3,15,대전광역시 중구 태평로 118 ?(태평동)?노성빌딩 2층,세광교회,042-524-3790,,130,,36.326958,127.395658,2015-08-31
오류동 삼성아파트도서관,대전광역시,중구,작은도서관,"토,일,공휴일",14:00,17:00,50,5000,0,0,3,15,대전광역시 중구 계백로 1699  (오류동),오류동삼성아파트,042-532-5171,,180,,36.32167,127.408217,2015-08-31
공익문고풀뿌리아카이브,대전광역시,중구,작은도서관,"목,토,일,공휴일",9:00,18:00,20,7000,30,0,3,15,대전광역시 중구 수침로106번길 20  (태평동),사)풀뿌리사람들시민단체,042-524-1009,,45,,36.329015,127.399975,2015-08-31
사랑의 문고,대전광역시,중구,작은도서관,월요일,10:00,17:00,15,1000,0,0,3,15,대전광역시 중구 대흥로10번길 9 ?(대사동)?풀뿌리시민센터 2층,대전주민의교회,042-223-9924,,48.38,,36.320949,127.415778,2015-08-31
늘푸른도서관,대전광역시,중구,작은도서관,"토,일,공휴일",8:30,16:00,44,3500,0,0,3,15,"대전광역시 중구 계룡로 852  (오류동, 삼성아파트)",늘푸른지역아동센터,042-345-2717,,58.08,,36.324931,127.406123,2015-08-31
해바라기문고,대전광역시,중구,작은도서관,"토,일,공휴일",10:00,21:00,12,2000,1,0,0,15,대전광역시 중구 충무로 71번길33 (대흥동),태평지역아동센터,042-252-0740,,90,,36.318306,127.424469,2015-08-31
중촌마을어린이도서관'짜장',대전광역시,중구,작은도서관,"토,일,공휴일",10:30,18:00,40,2500,3,0,3,15,"대전광역시 중구 서문로 96  (문화동, 센트럴파크2단지아파트)",마을단위/회원,042-320-7633,,99.54,,36.317107,127.409636,2015-08-31
청춘 책방 '책 한그릇',대전광역시,중구,작은도서관,"토,일,공휴일",14:00,19:00,15,1100,4,0,0,15,대전광역시 중구 대둔산로 271  (사정동),청소년단체 청춘,042-586-5591,,53.4,,36.293916,127.383241,2015-08-31
어린이책 읽새 골목길 작은도서관,대전광역시,중구,작은도서관,"토,일,공휴일",11:00,19:00,20,1200,4,0,3,15,대전광역시 중구 보문산로 177번길 41-11(문화동),개인,042-585-1332,,115.35,,36.307864,127.399812,2015-08-31
금호새마을문고,대전광역시,중구,작은도서관,"화,목토,일,공휴일",15:00,17:00,20,2800,0,0,3,15,대전광역시 중구 계백로 1542(유천동),금호아파트,042-584-1424,,40.7,,36.316696,127.391738,2015-08-31
문화작은도서관,대전광역시,중구,작은도서관,"토,일,공휴일",10:00,17:00,61,1500,3,0,3,15,대전광역시 중구 대둔산로 323번길 35(사정동),개인,042-582-9676,,119,,36.297446,127.383861,2015-08-31
짝꿍어린이도서관,대전광역시,중구,작은도서관,"토,일,공휴일",11:00,17:00,32,1400,2,0,3,15,"대전광역시 중구 대둔산로488,2층(산성동)",마을단위/회원,042-583-1139,,96.9,,36.312391,127.389307,2015-08-31
하하호호 어린이도서관,대전광역시,중구,작은도서관,"일,공휴일",14:00,19:00,70,1000,0,0,3,15,대전광역시  중구 선화서로 118 (선화동),빈들지역아동센터,042-223-5024,,148.35,,36.333695,127.414959,2015-08-31
푸른솔문고,대전광역시,중구,작은도서관,"일,공휴일",10:00,18:00,18,1500,30,0,3,15,대전광역시 중구 보문로30번길 49  (문창동),푸른솔지역아동센터,042-251-9004,,51.07,,36.316094,127.436403,2015-08-31
깊은산속 옹달샘,대전광역시,중구,작은도서관,"토,일,공휴일",12:00,18:00,40,1400,0,0,3,15,대전광역시 중구 선화로 43번길 13(용두동),산서지역아동센터,042-254-6396,,126.36,,36.327557,127.412561,2015-08-31
글마루도서관,대전광역시,중구,작은도서관,"토,일,공휴일",10:00,19:30,30,1600,0,0,3,15,대전광역시 중구 대둔산로 449(산성동) 3층,가정지역아동센터,042-583-4892,,37.52,,36.309293,127.387532,2015-08-31
복된문고,대전광역시,중구,작은도서관,"토,일,공휴일",10:00,19:00,15,1000,3,0,3,15,"대전광역시 중구 서문로 10(문화동, 한밭도서관 별관1층)",중부지역아동센터,042-252-0055,,42.25,,36.309816,127.409623,2015-08-31
대전다문화도서관,대전광역시,중구,작은도서관,"토,일,공휴일",10:00,17:00,50,4500,0,0,3,15,대전광역시 중구 대전천서로 467-1  (은행동) 2층,대전이주여성인권센터,042-537-5012,,152.9,,36.330155,127.427935,2015-08-31
목동어린이도서관,대전광역시,중구,작은도서관,"토,일,공휴일",10:00,18:00,20,2000,2,0,0,15,대전광역시 중구 오류로26(오류동)2층,한우리논술학원,042-335-9442,,42.1,,36.322797,127.404921,2015-08-31
남대전푸른문고,대전광역시,중구,작은도서관,"토,일,공휴일",13:30,16:30,30,1500,1,0,3,15,대전광역시 중구 대종로199번길 33  (호동),개인,042-272-3004,,66,,36.306848,127.444021,2015-08-31
영주시립도서관,경상북도,영주시,공공도서관,매주화요일,09:00,22:00,340,58505,77,2342,3,15,경상북도 영주시 가흥로 263 (가흥동),경상북도 영주시청,054-638-2550,9470,1338,http://lib.yeongju.go.kr,36.8208862,128.6127971,2015-08-31
영주상망작은도서관,경상북도,영주시,작은도서관,"매주 일요일, 매주월요일",13:00,19:00,30,8094,0,42,3,15,경상북도 영주시 광복로 87 (하망동),경상북도 영주시청,054-631-6137,2468,132,http://lib.yeongju.go.kr,36.8281646,128.6282601,2015-08-31
영주휴천작은도서관,경상북도,영주시,작은도서관,"매주 일요일, 매주월요일",13:00,19:00,20,8022,0,169,3,15,경상북도 영주시 구성로 273번길 30 (휴천동),경상북도 영주시청,054-631-6302,1679,76,http://lib.yeongju.go.kr,36.8178100,128.6259114,2015-08-31
포은중앙도서관,경상북도,포항시,공공도서관,"매월 첫째·셋째 월요일, 토·일요일을 제외한 법정공휴일",9:00,18:00,683,106713,30,2574,5,14,경상북도 포항시 북구 삼호로 31,경상북도 포항시 평생학습원 시립도서관,054-270-4600,6815,9812,http://www.phlib.or.kr,129.3674875,36.0438708,2016-05-17
영암도서관,경상북도,포항시,공공도서관,"매월 둘째·넷째 월요일, 토·일요일을 제외한 법정공휴일",9:00,18:00,316,104159,29,9885,5,14,경상북도 포항시 남구 상공로46번길11,경상북도 포항시 평생학습원 시립도서관,054-281-0009,5665,1743,http://www.phlib.or.kr,129.3581880,36.0123630,2016-05-17
오천도서관,경상북도,포항시,공공도서관,매월 첫째·셋째 월요일 토·일요일을 제외한 법정공휴일,9:00,18:00,302,49683,33,2770,5,14,경상북도 포항시 남구 정몽주로 566,경상북도 포항시 평생학습원 시립도서관,054-270-5621,2661,2548,http://www.phlib.or.kr,129.4164469,35.9686415,2016-05-17
대잠도서관,경상북도,포항시,공공도서관,"매월 첫째·셋째 월요일, 토·일요일을 제외한 공휴일",9:00,18:00,130,131772,33,7729,5,14,"경상북도 포항시 남구 시청로1 문화동 3층,4층",경상북도 포항시 평생학습원 시립도서관,054-270-5680,930,1859,http://www.phlib.or.kr,129.3435680,36.0192317,2016-05-17
동해석곡도서관,경상북도,포항시,공공도서관,매월 둘째·넷째 월요일/토·일요일을 제외한 법정공휴일,9:00,18:00,130,31517,13,4020,5,14,경상북도 포항시 남구 동해면 일월로41번길 19,경상북도 포항시 평생학습원 시립도서관,054-270-4622,4468,1210,http://www.phlib.or.kr,129.4374240,35.9908951,2016-05-17
어린이영어도서관,경상북도,포항시,공공도서관,"매주 일요일, 토·일요일을 제외한 법정공휴일",9:00,18:00,43,15861,12,0,5,14,경상북도 포항시 남구 뱃머리길 39 평생학습원 5층,경상북도 포항시 평생학습원 시립도서관,054-270-4384,745,745,http://www.phlib.or.kr,129.3557325,36.0069433,2016-05-17
죽장면 선바위 작은도서관,경상북도,포항시,작은도서관,"매주 토, 일요일/ 법정 공휴일",13:00,19:00,50,8134,0,0,5,14,경상북도 포항시 북구 죽장면 새마을로 3599 (죽장면복지회관 2층),경상북도 포항시 평생학습원 시립도서관,054-246-3009,213,213,http://www.phlib.or.kr,129.0944080,36.1604931,2016-05-17
흥해읍 이팝 작은도서관,경상북도,포항시,작은도서관,"매주 토, 일요일/ 법정 공휴일",9:00,18:00,30,10189,0,0,5,14,경상북도 포항시 북구 흥해읍 한동로 52 (흥해종합문화센터 4층),경상북도 포항시 평생학습원 시립도서관,054-240-7586,74,74,http://www.phlib.or.kr,129.3470763,36.1100876,2016-05-17
해도동 바다섬 작은도서관,경상북도,포항시,작은도서관,"매주 일, 월요일/ 법정공휴일",9:00,18:00,40,6736,0,0,5,14,경상북도 포항시 남구 중앙로68번길 7/ 2층(해도동 경로당),경상북도 포항시 평생학습원 시립도서관,054-282-9896,149,149,http://www.phlib.or.kr,129.3704602,36.0194094,2016-05-17
양학동 부학 작은도서관,경상북도,포항시,작은도서관,"매주 일, 월요일/ 법정공휴일",9:00,19:00,50,11583,0,0,5,14,경상북도 포항시 북구 양학로 17(양학치안센터 2층),경상북도 포항시 평생학습원 시립도서관,054-240-7766,237,237,http://www.phlib.or.kr,129.3505767,36.0254414,2016-05-17
신광면 비학산 작은도서관,경상북도,포항시,작은도서관,"매주 일, 월요일/ 법정 공휴일",13:00,18:00,40,7340,0,0,5,14,경상북도 포항시 북구 신광면 토성길25번길 10-5 (신광면 복지회관 2층),경상북도 포항시 평생학습원 시립도서관,054-241-0302,148,148,http://www.phlib.or.kr,129.2615967,36.1297931,2016-05-17
두호동 두무치 작은도서관,경상북도,포항시,작은도서관,"매주 일, 월요일/ 법정 공휴일",9:00,18:00,50,9963,0,0,5,14,경상북도 포항시 북구 삼호로203번길 22 (두호동 농업인회관 1층),경상북도 포항시 평생학습원 시립도서관,054-246-0300,254,254,http://www.phlib.or.kr,129.3747284,36.0573382,2016-05-17
청림동 푸른숲 작은도서관,경상북도,포항시,작은도서관,"매주 일, 월요일/ 법정 공휴일",13:00,18:00,50,7470,0,0,5,14,경상북도 포항시 남구 동해안로 6001(청림동) 청림마을독서실 2층,경상북도 포항시 평생학습원 시립도서관,054-292-0129,333,333,http://www.phlib.or.kr,129.4094430,35.9951453,2016-05-17
효곡동 행복 작은도서관,경상북도,포항시,작은도서관,"매주 일, 월요일/ 법정 공휴일",9:00,18:00,40,10742,0,0,5,14,경상북도 포항시 남구 새천년대로 306 (SK뷰1차 관리사무소 2층),경상북도 포항시 평생학습원 시립도서관,070-7779-5400,163,163,http://www.phlib.or.kr,129.3331382,36.0060364,2016-05-17
오천읍 해와달 작은도서관,경상북도,포항시,작은도서관,"매주 일, 월요일/ 법정 공휴일",10:00,17:00,30,8538,0,0,5,14,경상북도 포항시 남구 오천읍 철강로 685 (준양참마을 관리사무소 2층),경상북도 포항시 평생학습원 시립도서관,054-291-0700,100,100,http://www.phlib.or.kr,129.4016108,35.9639113,2016-05-17
장량동 참사랑 작은도서관,경상북도,포항시,작은도서관,"매주 일, 월요일/ 법정 공휴일",9:00,18:00,30,7888,0,0,5,14,경상북도 포항시 북구 침촌로 20 (대림골든빌사무소 2층),경상북도 포항시 평생학습원 시립도서관,054-255-0022,86,86,http://www.phlib.or.kr,129.3779321,36.0819393,2016-05-17
연일읍 미르 작은도서관,경상북도,포항시,작은도서관,"매주 일, 월요일/ 법정 공휴일",9:00,18:00,40,9745,0,0,5,14,경상북도 포항시 남구 연일읍 유강길10번길 49 (유강코아루 1차 관리동),경상북도 포항시 평생학습원 시립도서관,070-7704-7744,219,219,http://www.phlib.or.kr,129.3202045,36.0075324,2016-05-17
상대동 큰섬마을 작은도서관,경상북도,포항시,작은도서관,"매주 일, 월요일/ 법정 공휴일",9:00,18:00,30,7542,0,0,5,14,경상북도 포항시 남구 대해로91번길 22 (대도4어린이공원내),경상북도 포항시 평생학습원 시립도서관,054-283-0030,102,102,http://www.phlib.or.kr,129.3641443,36.0236948,2016-05-17
대송면 큰솔 작은도서관,경상북도,포항시,작은도서관,"매주 일, 월요일/ 법정공휴일",13:00,18:00,50,9396,0,0,5,14,경상북도 포항시 남구 대송면 운제로 111 (다목적복지회관 3층),경상북도 포항시 평생학습원 시립도서관,054-286-7474,272,272,http://www.phlib.or.kr,129.3622287,35.9781390,2016-05-17
죽도동 청암 작은도서관,경상북도,포항시,작은도서관,"매주 토, 일요일/ 법정 공휴일",9:00,18:00,50,8352,0,0,5,14,경상북도 포항시 북구 죽도로 82-2 (문화복지센터 2층),경상북도 포항시 평생학습원 시립도서관,070-4125-3081,276,276,http://www.phlib.or.kr,129.3694662,36.0330667,2016-05-17
효곡동 그린숲 작은도서관,경상북도,포항시,작은도서관,"매주 일, 월요일/ 법정 공휴일",13:00,18:00,50,7937,0,0,5,14,경상북도 포항시 남구 지곡로278번길 2 (지곡동 그린관리사무소 2층),경상북도 포항시 평생학습원 시립도서관,054-221-4924,151,151,http://www.phlib.or.kr,129.3230316,36.0296604,2016-05-17
송도동 솔향 작은도서관,경상북도,포항시,작은도서관,"매주 일, 월요일/ 법정공휴일",9:00,18:00,30,6765,0,0,5,14,경상북도 포항시 남구 서동로 162 (태왕아너스 관리소 2층),경상북도 포항시 평생학습원 시립도서관,054-246-6688,90,90,http://www.phlib.or.kr,129.3759803,36.0390918,2016-05-17
오천읍 그루터기 작은도서관,경상북도,포항시,작은도서관,"매주 일, 월요일/ 법정공휴일",10:00,17:00,40,7630,0,0,5,14,경상북도 포항시 남구 오천읍 정몽주로 481 (부사관아파트 독서실),경상북도 포항시 평생학습원 시립도서관,054-292-4488,200,200,http://www.phlib.or.kr,129.4117620,35.9629902,2016-05-17
환여동 해맞이꿈터 작은도서관,경상북도,포항시,작은도서관,"매주 일, 월요일/ 법정 공휴일",9:00,18:00,30,7636,0,0,5,14,경상북도 포항시 북구 삼호로 391 (해맞이그린빌 관리사무소 1층),경상북도 포항시 평생학습원 시립도서관,054-251-5577,102,102,http://www.phlib.or.kr,129.3912880,36.0692629,2016-05-17
기계면 버드내 작은도서관,경상북도,포항시,작은도서관,"매주 토, 일요일/ 법정 공휴일",13:00,18:00,40,7709,0,0,5,14,경상북도 포항시 북구 기계면 기계로 94 (기계면 복지회관 3층),경상북도 포항시 평생학습원 시립도서관,054-243-6565,168,168,http://www.phlib.or.kr,129.2064917,36.0704122,2016-05-17
두호동 책이랑바다랑 작은도서관,경상북도,포항시,작은도서관,"매주 토, 일요일/ 법정 공휴일",13:00,18:00,10,4348,0,0,5,14,경상북도 포항시 북구 두호동 삼호로 260 (두호동 주민센터 2층),경상북도 포항시 평생학습원 시립도서관,070-7730-5119,40,40,http://www.phlib.or.kr,129.3801367,36.0608327,2016-05-17
환호동 환호어린이 작은도서관,경상북도,포항시,작은도서관,"매주 일, 월요일/ 법정 공휴일",13:00,18:00,30,6785,0,0,5,14,경상북도 포항시 북구 해맞이공원길 30 (환호공원관리사무소 1층),경상북도 포항시 평생학습원 시립도서관,054-251-5578,227,227,http://www.phlib.or.kr,129.3931429,36.0677345,2016-05-17
청림동 찬내 작은도서관,경상북도,포항시,작은도서관,"매주 일, 월요일/ 법정 공휴일",10:00,18:00,30,6116,0,0,5,14,경상북도 포항시 남구 정몽주로879번길 9-1 (청림동 새마을금고 2층),경상북도 포항시 평생학습원 시립도서관,054-291-6454,201,201,http://www.phlib.or.kr,129.4043654,35.9926713,2016-05-17
죽도동 맑은물 작은도서관,경상북도,포항시,작은도서관,"매주 일, 월요일/ 법정 공휴일",9:00,18:00,40,4016,0,0,5,14,경상북도 포항시 북구 죽도로40번길 6 (죽도빗물펌프장 1층),경상북도 포항시 평생학습원 시립도서관,054-278-3081,63,63,http://www.phlib.or.kr,129.3647387,36.0329348,2016-05-17
구룡포 미르아라 작은도서관,경상북도,포항시,작은도서관,매주 일요일/ 법정 공휴일,9:00,18:00,40,5516,0,0,5,14,경상북도 포항시 남구 구룡포읍 구룡포길65번길 7 (구룡포읍민복지회관 3층),경상북도 포항시 평생학습원 시립도서관,054-276-4122,164,164,http://www.phlib.or.kr,129.5525423,35.9911939,2016-05-17
청하면 해아 작은도서관,경상북도,포항시,작은도서관,"매주 일, 월요일/ 법정 공휴일",9:00,18:00,30,4437,0,0,5,14,경상북도 포항시 북구 청하면 청하로 247 (면민복지회관 1층),경상북도 포항시 평생학습원 시립도서관,054-231-6799,88,88,http://www.phlib.or.kr,129.3407003,36.2012958,2016-05-17
장량동 다솜 작은도서관,경상북도,포항시,작은도서관,"매주 일, 월요일/ 법정 공휴일",9:00,18:00,40,5443,0,0,5,14,경상북도 포항시 북구 장량 중앙로 17 (장량휴먼시아 주민복지시설 2층),경상북도 포항시 평생학습원 시립도서관,054-252-0016,143,143,http://www.phlib.or.kr,129.3825572,36.0917528,2016-05-17
장량동 햇살 작은도서관,경상북도,포항시,작은도서관,"매주 일, 월요일/ 법정 공휴일",9:00,18:00,40,7356,0,0,5,14,경상북도 포항시 북구 양덕로 50번길 33 (양덕삼성쉐르빌 104동 부대복지시설1층),경상북도 포항시 평생학습원 시립도서관,054-256-0016,169,169,http://www.phlib.or.kr,129.4058505,36.0846036,2016-05-17
효곡동 열린 작은도서관,경상북도,포항시,작은도서관,"매주 일, 월요일/ 법정 공휴일",9:00,18:00,40,5416,0,0,5,14,경상북도 포항시 남구 효성로 88 (효자웰빙타운 SK뷰3차 1층),경상북도 포항시 평생학습원 시립도서관,054-272-4434,260,260,http://www.phlib.or.kr,129.3434059,36.0048681,2016-05-17
연일읍 해돋이 작은도서관,경상북도,포항시,작은도서관,"매주 일, 월요일/ 법정 공휴일",9:00,18:00,50,4945,0,0,5,14,경상북도 포항시 남구 연일읍 철강로 10 (연일읍주민센터 옆),경상북도 포항시 평생학습원 시립도서관,070-7700-1255,227,227,http://www.phlib.or.kr,129.3439854,35.9916047,2016-05-17
흥해읍 내맏이 작은도서관,경상북도,포항시,작은도서관,"매주 일, 월요일/ 법정 공휴일",9:00,18:00,40,4047,0,0,5,14,경상북도 포항시 북구 흥해읍 학천리 삼도미래타운 1차 (주민공동시설 1층),경상북도 포항시 평생학습원 시립도서관,054-262-3997,96,96,http://www.phlib.or.kr,129.3300217,36.0805760,2016-05-17
흥해읍 어리골 작은도서관,경상북도,포항시,작은도서관,"매주 일, 월요일/ 법정 공휴일",9:00,18:00,20,4054,0,0,5,14,경상북도 포항시 북구 흥해읍 이인리 대유타운 (입주자대표 회의실 1층),경상북도 포항시 평생학습원 시립도서관,054-262-3996,66,66,http://www.phlib.or.kr,129.3345198,36.0703072,2016-05-17
장량동 해뜰참 작은도서관,경상북도,포항시,작은도서관,"매주 일, 월요일/ 법정 공휴일",9:00,18:00,30,4574,0,0,5,14,경상북도 포항시 북구 장성동 두산위브더제니스 복지동 1층 (구. 입주자대표 회의실),경상북도 포항시 평생학습원 시립도서관,054-246-0016,105,105,http://www.phlib.or.kr,129.3819991,36.0749449,2016-05-17
죽장면 참느리 작은도서관,경상북도,포항시,작은도서관,"매주 토, 일요일/ 법정 공휴일",9:00,18:00,25,2838,0,0,5,14,경상북도 포항시 북구 죽장면 상옥리 822-1 (상옥노인복지회관 내 2층),경상북도 포항시 평생학습원 시립도서관,054-261-0330,85,85,http://www.phlib.or.kr,129.2154541,36.2415680,2016-05-17
용흥동 솔개재 작은도서관,경상북도,포항시,작은도서관,"매주 일, 월요일/ 법정 공휴일",9:00,18:00,40,5103,0,0,5,14,경상북도 포항시 북구 용흥동 우방아파트 124동 앞 (우방독서실 내 1층),경상북도 포항시 평생학습원 시립도서관,070-8864-1110,176,176,http://www.phlib.or.kr,129.3527430,36.0429914,2016-05-17
장량동 꿈마루 작은도서관,경상북도,포항시,작은도서관,"매주 일, 월요일/ 법정 공휴일",9:00,18:00,30,3300,0,0,5,14,경상북도 포항시 북구 장량중앙로 117 (장량LH5단지 관리동 1층),경상북도 포항시 평생학습원 시립도서관,054-252-1622,122,122,http://www.phlib.or.kr,129.3947615,36.0896534,2016-05-17
흥해읍 참새미 작은도서관,경상북도,포항시,작은도서관,"매주 일, 월요일/ 법정 공휴일",9:00,18:00,24,3614,0,0,5,14,경상북도 포항시 북구 달전로 365 (흥해 삼도드림파크 복지동 2층),경상북도 포항시 평생학습원 시립도서관,054-262-3002,93,93,http://www.phlib.or.kr,129.3391557,36.0762217,2016-05-17
장량동 바람숲 작은도서관,경상북도,포항시,작은도서관,"매주 일, 월요일/ 법정 공휴일",9:00,18:00,20,2579,0,0,5,14,경상북도 포항시 북구 양덕로 60 (양덕 풍림아이원 관리동 2층),경상북도 포항시 평생학습원 시립도서관,054-251-2531,80,80,http://www.phlib.or.kr,129.4035043,36.0847554,2016-05-17
호미곶면 호미곶 작은도서관,경상북도,포항시,작은도서관,"매주 일, 월요일/ 법정 공휴일",10:00,19:00,12,1857,0,0,5,14,경상북도 포항시 남구 호미곶면 해맞이로 173 (대보2리 마을회관 2층),경상북도 포항시 평생학습원 시립도서관,054-284-2566,82,82,http://www.phlib.or.kr,129.5618135,36.0776038,2016-05-17
목포공공도서관,전라남도,목포시,공공,"첫째, 셋째 월요일, 국가지정공휴일",07:00,22:00,1600 ,320463 ,163,48802 ,10,15,전라남도 목포시 원산주택로3번길 6,전라남도교육청,061-270-3800,"4,720.80","6,065.10",www.mokpolib.kr,34.8072191,126.3762901,2016-05-01
중봉도서관,경기도,김포시,공공도서관,"2,4주 월요일, 국가지정공휴일",8:00,23:00,550,294066,226,7447,10,14,경기도 김포시 봉화로130번길 26,경기도 김포시청,031-980-5186,3816,4932,http://lib.gimpo.go.kr,37.62580688,126.7069315,2015-10-16
양곡도서관,경기도,김포시,공공도서관,"1,3주 금요일, 법정공휴일",9:00,22:00,144,47234,78,1256,10,14,경기도 김포시 양촌읍 양곡4로 197번길 40,경기도 김포시청,031-980-5414,2095,1702,http://lib.gimpo.go.kr,37.66162359,126.6314373,2015-10-16
통진도서관,경기도,김포시,공공도서관,"1,3주 수요일, 법정공휴일",8:00,23:00,414,96697,125,4200,10,14,경기도 김포시 통진읍 조강로 132,경기도 김포도시공사,031-996-0750,6313,4080,http://lib.gimpo.go.kr,37.69398307,126.5920603,2015-10-16
경상북도교육정보센터,경상북도,경산시,공공도서관,"매월 둘째주,넷째주 월요일",08:00,22:00,264,162731,248,6136,5,14,경상북도 경산시 원효로 60,경상북도교육청,053-810-9999,6817,6209,http://www.info.go.kr/geic/index.do,35.822859,128.744094,2016-05-17
구수산도서관,대구광역시,북구,공공도서관,"매월 둘째,넷째 월요일, 국가지정공휴일",9:00,22:00,544,103319 ,119,6267 ,10,15,대구광역시 북구 대천로 21 (읍내동),대구광역시 북구청,053-665-4260,"10,454","3,702",http://lib.buk.daegu.kr/library/,35.9387435,128.5524048,2016-06-17
대현도서관,대구광역시,북구,공공도서관,"둘째,넷째 월요일, 국가지정공휴일",9:00,20:00,190,20087 ,62,0,5,15,대구광역시 북구 대현남로43(대현동),대구광역시 북구청,053-665-4300,687.18,847.64,http://lib.buk.daegu.kr/library/,35.882001,128.607339,2016-06-17
고성동 작은도서관,대구광역시,북구,작은도서관,"토, 일, 법정공휴일",9:00,18:00,40,4019 ,0,0,3,15,대구광역시 북구 고성로 31길 21 고성동주민센터 1층,대구광역시 북구청,053-665-3416,,90,,,,2016-06-17
노원동 작은도서관,대구광역시,북구,작은도서관,"토, 일, 법정공휴일",9:00,18:00,20,2172 ,0,0,3,15,대구광역시 북구 팔달로 33길 50 팔달신시장 내 고객쉼터 2층,대구광역시 북구청,053-354-5535,,68,,,,2016-06-17
산격1동 작은도서관,대구광역시,북구,작은도서관,"토, 일, 법정공휴일",9:00,18:00,30,2522 ,0,0,3,15,대구광역시 북구 연암로 36길 6 산격1동주민센터 3층,대구광역시 북구청,053-665-3910,,106,,,,2016-06-17
태전1동 작은도서관,대구광역시,북구,작은도서관,"토, 일, 법정공휴일",9:00,18:00,36,7217 ,0,0,3,15,대구광역시 북구 태전로 7길 10-24 태전1동주민센터 2층,대구광역시 북구청,053-665-3774,,148,,,,2016-06-17
U대회선수촌2단지 도서관,대구광역시,북구,작은도서관,"토, 일, 법정공휴일",14:00,20:00,50,7878 ,0,60,6,7,대구광역시 북구 동변로 24,,053-955-5029,,132,,,,2016-06-17
겨자씨도서관,대구광역시,북구,작은도서관,법정공휴일,10:00,18:00,12,3796 ,3,0,0,0,대구광역시 북구 칠곡중앙대로114길9(읍내동) 칠곡교회,,053-324-9191,,33,,,,2016-06-17
글벗작은도서관,대구광역시,북구,작은도서관,"토, 일, 법정공휴일",14:00,18:00,60,4000 ,0,0,0,0,대구광역시 북구 구암동 765-2 동재빌딩 205호,,053-321-8590,,99.2,,,,2016-06-17
꿈가득 작은도서관,대구광역시,북구,작은도서관,"목요일, 법정공휴일",11:00,13:00,22,1430 ,0,1,0,0,대구광역시 북구 연암로113(산격동),,,,130,,,,2016-06-17
꿈꾸는도서관,대구광역시,북구,작은도서관,"일요일, 법정공휴일",10:00,18:00,40,4066 ,2,0,0,0,대구광역시 북구 구암동 795-7,,053-312-2043,,133.61,,,,2016-06-17
꿈이 있는 도서관,대구광역시,북구,작은도서관,"일요일, 법정공휴일",10:00,20:00,20,4000 ,0,0,0,0,대구광역시 북구 검단동로 14-7(검단동) 북대구교회 2층,,053-384-8494,,36.69,,,,2016-06-17
대현 휴 도서관,대구광역시,북구,작은도서관,"토, 일, 법정공휴일",14:00,18:00,18,5000 ,0,5,4,7,대구광역시 북구 대현남로 25(대현동) 대현휴먼시아2단지,,053-942-8712,,61.96,,,,2016-06-17
대현뜨란채도서관,대구광역시,북구,작은도서관,"화, 목, 토, 일, 법정공휴일",14:00,17:00,60,4000 ,0,0,0,0,대구광역시 북구 대현남로 28(대현동) 대현뜨란채 106동 지하1층,,053-959-8482,,230,,,,2016-06-17
대현이편한세상도서관,대구광역시,북구,작은도서관,"토, 일, 법정공휴일",14:30,17:30,45,8400 ,1,0,3,7,대구광역시 북구 대현로 10길 82(대현동) 대현이편한세상 102동 지하1층,,053-939-0550,,94.9,,,,2016-06-17
매화도서관,대구광역시,북구,작은도서관,"일요일, 법정공휴일",12:00,18:00,10,2700 ,0,0,0,0,대구광역시 북구 매천로17(매천동) 매천화성파크드림,,053-325-0673,,150,,,,2016-06-17
메르디앙작은도서관,대구광역시,북구,작은도서관,"토, 일, 법정공휴일",14:00,19:00,20,4000 ,16,0,3,7,대구광역시 북구 서변로26(서변동) 동서변월드메르디앙,,,,40,,,,2016-06-17
무지개작은도서관,대구광역시,북구,작은도서관,"토, 일, 법정공휴일",9:00,18:00,20,4000 ,0,0,0,0,대구광역시 북구 동천로24길7(동천동),,,,49,,,,2016-06-17
성광우방타운 주민도서실,대구광역시,북구,작은도서관,"월, 수, 금, 토, 일, 법정공휴일",18:30,20:30,24,4600 ,0,0,0,0,대구광역시 북구 호암로 20 (칠성동2가) 성광우방타운관리사무소 2층,,053-357-0698,,125,,,,2016-06-17
아낌없이주는나무,대구광역시,북구,작은도서관,"일요일, 법정공휴일",13:00,19:00,60,3000 ,0,0,0,0,대구광역시 북구 경대로 109(복현동) 복합문화공간 3층,,,,180,,,,2016-06-17
아름다운작은도서관,대구광역시,북구,작은도서관,"토, 일, 법정공휴일",10:00,18:00,12,1188 ,0,0,0,0,대구광역시 북구 중앙대로105길27(칠성동2가),,053-353-4333,,39.6,,,,2016-06-17
영어도서관 E&C 도서관,대구광역시,북구,작은도서관,"토, 일, 법정공휴일",14:00,20:00,20,1500 ,0,0,0,0,대구광역시 북구 침산로 116(침산동),,053-353-8005,,115,,,,2016-06-17
은광작은도서관,대구광역시,북구,작은도서관,"일요일, 법정공휴일",14:00,18:00,10,1600 ,0,0,0,0,대구광역시 북구 태전로15길 1-10(태전동),,053-314-7379,,43.2,,,,2016-06-17
작은도서관 수인제,대구광역시,북구,작은도서관,"토, 일, 법정공휴일",11:00,16:00,10,2500 ,0,0,0,0,대구광역시 북구 학정로42길34(구암동),,,,40,,,,2016-06-17
작은인문학도서관 고인돌,대구광역시,북구,작은도서관,"일요일, 법정공휴일",10:00,17:00,30,1755 ,0,0,0,0,대구광역시 북구 학정로415(동천동),,,,163.18,,,,2016-06-17
책나무도서관(동천동),대구광역시,북구,작은도서관,"토, 일, 법정공휴일",12:00,19:00,50,8000 ,0,0,0,0,대구광역시 북구 팔거천동로34길 17(동천동),,053-286-4005,,217.1,,,,2016-06-17
책나무도서관(복현동),대구광역시,북구,작은도서관,"일요일, 법정공휴일",13:00,19:00,38,6200 ,0,0,0,0,대구광역시 북구 복현로50상가305호-4(복현동) 명문세가,,053-944-7990,,93,,,,2016-06-17
책나무도서관(산격동),대구광역시,북구,작은도서관,"토, 일, 법정공휴일",12:00,18:00,45,6000 ,0,0,0,0,대구광역시 북구 동북로163(산격동) 산격대우아파트 201동 308호,,053-944-8767,,92.25,,,,2016-06-17
책나무도서관(서변동),대구광역시,북구,작은도서관,"토, 일, 법정공휴일",10:00,19:00,30,4000 ,0,0,0,0,대구광역시 북구 서변로91(서변동),,053-944-4007,,132,,,,2016-06-17
책나무도서관(침산동),대구광역시,북구,작은도서관,"일요일, 법정공휴일",13:00,20:00,15,8000 ,0,0,0,0,대구광역시 북구 침산로 21길 10(침산동) 침산무지개아파트 209호 2호,,053-359-1235,,162,,,,2016-06-17
책마실도서관,대구광역시,북구,작은도서관,"월, 법정공휴일",10:00,17:00,30,11166 ,1,100,10,14,대구광역시 북구 구리로 26(동천동) 칠곡우방하이츠 지하1호,,053-324-0615,,151.14,,,,2016-06-17
책이랑 작은도서관,대구광역시,북구,작은도서관,"토, 일, 법정공휴일",12:00,19:00,24,1255 ,0,0,0,0,대구광역시 북구 동천로85(동천동),,,,51,,,,2016-06-17
청소년 밝은세상 비전문고,대구광역시,북구,작은도서관,"월요일, 법정공휴일",14:00,18:00,15,4500 ,0,0,0,0,대구광역시 북구 칠성로 79 (칠성동2가) 온세상교회 2층,,053-255-9900,,64.7,,,,2016-06-17
칠곡그린빌4단지 도서실,대구광역시,북구,작은도서관,"월, 토, 일, 법정공휴일",17:00,20:00,20,3000 ,0,0,0,0,대구광역시 북구 구암서로 22(구암동),,053-267-5455,,54.11,,,,2016-06-17
칠성휴먼시아 작은도서관,대구광역시,북구,작은도서관,"화, 일, 법정공휴일",14:00,17:00,15,3000 ,2,0,0,0,대구광역시 북구 칠성남로 101(칠성동) 칠성휴먼시아,,053-355-7970,,33.1,,,,2016-06-17
침산 코오롱 하늘채 2단지 작은도서관,대구광역시,북구,작은도서관,"화, 목, 토, 일, 법정공휴일",14:00,17:00,26,5935 ,0,0,3,7,대구광역시 북구 중앙대로 591(침산동) 코오롱하늘채2단지 관리사무소 2층,,053-290-0303,,143,,,,2016-06-17
하람어린이도서관,대구광역시,북구,작은도서관,"월, 화, 수, 목, 금, 법정공휴일",9:00,17:00,30,3850 ,0,0,0,0,대구광역시 북구 대현로21길 72-3(대현동),,053-954-1693,,48,,,,2016-06-17
향기가 있는 열린공간 부엉이,대구광역시,북구,작은도서관,"토, 일, 법정공휴일",14:00,17:00,26,9200 ,0,0,3,7,대구광역시 북구 대천로 132(구암동) 아파트관리실 지하1층,,070-8709-7520,,50.4,,,,2016-06-17
화성그랜드파크 도서관 함지원,대구광역시,북구,작은도서관,"일요일, 법정공휴일",13:00,18:00,10,2300 ,0,0,0,0,대구광역시 북구 구암로 65길 9(구암동),,053-324-6935,,70,,,,2016-06-17
화성센트럴파크 도서관,대구광역시,북구,작은도서관,"토, 일, 법정공휴일",13:00,17:00,22,8336 ,7,0,3,7,대구광역시 북구 대천로 100(동천동) 화성센트럴파크 관리사무소 2층,,053-281-0952,,108,,,,2016-06-17
북구 어린이 도서관,대구광역시,북구,작은도서관,"일요일, 법정공휴일",9:00,18:00,30,16767 ,4,0,5,10,대구광역시 북구 검단로 71-17 (산격동),,053-383-3787,,95,,,,2016-06-17
책나무도서관(칠곡2지구),대구광역시,북구,작은도서관,"토, 일, 법정공휴일",12:00,19:00,6,6000 ,0,0,0,0,대구광역시 북구 대천로101 상가동 201호(동천동),,053-314-4005,,55.89,,,,2016-06-17
꿈꾸는작은도서관,대구광역시,북구,작은도서관,법정공휴일,13:00,18:00,24,1200 ,0,0,0,0,"대구광역시 북구 구암로 16길 7, 상가동 지하(태전동)",,053-325-4088,,99,,,,2016-06-17
월담작은도서관,강원도,영월군,공공도서관,매주월요일  국가지정공휴일,9:00,19:00,134,12588 ,7,125,3,14,강원도 영월군 영월읍 중리1길 10,강원도 영월군청,033-372-9123,"1,235",325,,37.178886,128.478129,2015-11-25
주천도서관,강원도,영월군,공공도서관,"매주월요일, 국가지정공휴일",9:00,20:00,33,21716 ,0,0,3,14,강원도 영월군 주천면 주천로103,강원도 영월군청,033-374-7766,"2,049",694.8,,37.272096,128.269074,2015-11-25
영월교육도서관,강원도,영월군,공공도서관,매주월요일  국가지정공휴일,8:00,23:00,188,92262 ,32,3767 ,5,14,강원도 영월군 영월읍 영월로 1914-7,강원도영월교육지원청,033-373-9314,"1,600","1,454",http://lib.gwe.go.kr/ywlib,37.183637,128.461754,2015-11-25
솔고개 작은도서관,대구광역시,달서구,작은도서관,매주 월·일요일 및 법정공휴일,14:00,17:00,100,4375,0,107,2,7,대구광역시 달서구 송현로16길 9-12(송현동  1913-8),,053-624-4347,,76,,,,2016-01-01
푸른하늘영어도서관,대구광역시,달서구,작은도서관,매주 월·일요일 및 법정공휴일,14:00,18:00,25,3227,0,0,3,7,대구광역시 달서구 월배로33길71 (월성동1321-1),,070-4024-1691,,100.8,,,,2016-01-01
예가도서관,대구광역시,달서구,작은도서관,매주 토·일요일 및 법정공휴일,14:00,18:00,24,8170,1,1089,2,7,대구광역시 달서구 조암남로32길 13(유천동 42),,070-8843-6646,,90.75,,,,2016-01-01
두산미소도서관,대구광역시,달서구,작은도서관,매주 토·일요일 및 법정공휴일,14:30,17:30,12,7738,0,7,5,5,대구광역시 달서구 당산로82 (성당동),,070-8196-9811,,43,,,,2016-01-01
새하늘작은도서관,대구광역시,달서구,작은도서관,매주 월요일 및 법정공휴일,09:00,18:00,24,2484,0,3,3,7,대구광역시 달서구 도원로서길 7 (도원동),,053-641-7506,,34.65,,,,2016-01-01
책으로 꿈꾸는 작은도서관,대구광역시,달서구,작은도서관,매주 토·일요일 및 법정공휴일,13:30,18:00,12,4235,1,0,3,8,대구광역시 달서구 용산로 160우방죽전 상가 203호,,053-565-7900,,42.3,,,,2016-01-01
월성e편한세상작은도서관,대구광역시,달서구,작은도서관,매주 토·일요일 및 법정공휴일,12:00,17:00,16,6898,0,0,5,7,대구광역시 달서구 조암남로10(월성동),,053-639-5780,,53.2,,,,2016-01-01
감삼영어도서관,대구광역시,달서구,작은도서관,매주 일요일 및 법정공휴일,14:00,19:00,50,4500,0,500,2,7,대구광역시 달서구 당산로21길 17         (감삼동),,053-624-2605,,63,,,,2016-01-01
작은빛도서관,대구광역시,달서구,작은도서관,매주 토·일요일 및 법정공휴일,14:00,20:00,20,2500,3,0,3,10,대구광역시 달서구 구마로 176(본동),,053-559-0303,,60,,,,2016-01-01
이곡책나무도서관,대구광역시,달서구,작은도서관,매주 토·일요일 및 법정공휴일,13:00,19:00,48,7000,0,0,0,0,대구광역시 달서구 이곡동로 65(이곡동),,053-286-4006,,65.8,,,,2016-01-01
책먹는여우도서관,대구광역시,달서구,작은도서관,매주 토·일요일 및 법정공휴일,14:00,18:00,28,9500,3,0,0,0,대구광역시 달서구 조암남로 5(상인동),,053-622-3839,,64.61,,,,2016-01-01
책나무도서관,대구광역시,달서구,작은도서관,매주 토·일요일 및 법정공휴일,12:30,19:30,40,9200,1,0,2,15,대구광역시 달서구 상원로 117(상인동),,053-638-4005,,68.2,,,,2016-01-01
작은숲도서관,대구광역시,달서구,작은도서관,매주 일요일 및 법정공휴일,09:30,20:00,30,8124,10,0,0,0,대구광역시 달서구 선원로 30-10(신당동),,053-587-7902,,60.8,,,,2016-01-01
꿈꾸는책나라도서관,대구광역시,달서구,작은도서관,매주 토·일요일 및 법정공휴일,13:00,19:00,20,8126,1,0,0,0,대구광역시 달서구 월배로11길 32(대천동),,053-267-1007,,28.72,,,,2016-01-01
진천책나무도서관,대구광역시,달서구,작은도서관,매주 일요일 및 법정공휴일,13:00,19:00,58,8700,1,50,4,7,대구광역시 달서구 월배로11길 32(대천동),,053-637-1150,,72,,,,2016-01-01
옷박골작은도서관,대구광역시,달서구,작은도서관,법정공휴일,09:00,18:00,20,1667,2,0,4,8,"대구광역시 달서구 용산로 259(용산동, 용산파크타운)",,053-525-0141,,41.52,,,,2016-01-01
대곡책나무도서관,대구광역시,달서구,작은도서관,매주 일요일 및 법정공휴일,12:30,19:00,24,6200,0,0,4,7,대구광역시 달서구 한실로73(도원동),,053-214-3437,,124,,,,2016-01-01
장기책나무도서관,대구광역시,달서구,작은도서관,매주 토·일요일 및 법정공휴일,13:00,19:00,40,7000,0,4,0,0,대구광역시 달서구 장기로 257(장기동),,053-567-5007,,115,,,,2016-01-01
e편한세상월배작은도서관,대구광역시,달서구,작은도서관,매주 수·토·일요일 및 법정공휴일,14:00,19:00,12,1800,0,0,3,7,"대구광역시 달서구 월성로 132(월성동, e편한세상월배)",,053-635-0917,,56.83,,,,2016-01-01
레이크뷰행복작은도서관,대구광역시,달서구,작은도서관,매주 일요일 및 법정공휴일,14:00,21:00,22,2500,2,6,3,7,"대구광역시 달서구 상화로58길 35(도원동, 서한이다음레이크)",,053-638-3434,,70.9,,,,2016-01-01
유천책나무도서관,대구광역시,달서구,작은도서관,매주 일요일 및 법정공휴일,13:00,19:00,40,6000,0,0,0,0,대구광역시 달서구 달서대로 65-21(유천동),,053-248-4055,,70,,,,2016-01-01
달서구립도원도서관,대구광역시,달서구,공공도서관,매주 월요일 및 법정공휴일,09:00,20:00,246,84422,31,3870,10,15,대구광역시 달서구 한실로 113(도원동),대구광역시 달서구청,053-667-4840,738,1230,http://www.dalseolib.kr,35.8068385,128.5389385,2016-01-01
달서구립달서어린이도서관,대구광역시,달서구,공공도서관,매주 금요일 및 법정공휴일,09:00,20:00,186,80335,16,4022,10,15,대구광역시 달서구 송현로 45(상인동),대구광역시 달서구청,053-667-4860,523.4,1380.7,http://www.dalseolib.kr,35.8224119,128.5470738,2016-01-01
달서구립성서도서관,대구광역시,달서구,공공도서관,매주 월요일 및 법정공휴일,09:00,20:00,301,78609,29,2561,10,15,대구광역시 달서구 선원남로 129(이곡동),대구광역시 달서구청,053-667-4900,821.9,1979.48,http://www.dalseolib.kr,35.8573737,128.5143125,2016-01-01
